{"0": {"index": 391, "category_code": "network_hosting", "founded_year": 1961, "name": "ECI Telecom", "number_of_employees": 3000, "offices": [{"description": "Americas HQ", "address1": "5100 NW 33rd Avenue", "address2": "", "zip_code": "33309", "city": "Ft. Lauderdale", "state_code": "FL", "country_code": "USA", "latitude": 26.1875706, "longitude": -80.1912988}], "total_money_raised": "$173M", "type": "Big company", "loc_office": [-80.1912988, 26.1875706]}, "1": {"index": 20, "category_code": "web", "founded_year": 2006, "name": "Eventbrite", "number_of_employees": 200, "offices": [{"description": "HQ", "address1": "651 Brannan", "address2": "Suite 110", "zip_code": "94107", "city": "San Francisco", "state_code": "CA", "country_code": "USA", "latitude": 37.779507, "longitude": -122.39071}], "total_money_raised": "$140M", "type": "Big company", "loc_office": [-122.39071, 37.779507]}, "2": {"index": 437, "category_code": "network_hosting", "founded_year": 2001, "name": "ControlCircle", "number_of_employees": 105, "offices": [{"description": "London Office", "address1": "221 Marsh Wall", "address2": "Moorfoot House", "zip_code": "E14 9FH", "city": "London", "state_code": null, "country_code": "GBR", "latitude": 51.5003204, "longitude": -0.0178689}], "total_money_raised": "\u00a36M", "type": "Big company", "loc_office": [-0.0178689, 51.5003204]}, "3": {"index": 80, "category_code": "web", "founded_year": 2005, "name": "Automattic", "number_of_employees": 200, "offices": [{"description": "Automattic Lounge", "address1": "132 Hawthorne St", "address2": "", "zip_code": "94107", "city": "San Francisco", "state_code": "CA", "country_code": "USA", "latitude": 37.744274, "longitude": -122.421344}], "total_money_raised": "$30.6M", "type": "Big company", "loc_office": [-122.421344, 37.744274]}, "4": {"index": 138, "category_code": "web", "founded_year": 2003, "name": "TheLadders", "number_of_employees": 110, "offices": [{"description": null, "address1": "137 Varick Street", "address2": "Floor 8", "zip_code": "10013", "city": "New York", "state_code": "NY", "country_code": "USA", "latitude": 40.725883, "longitude": -74.006196}], "total_money_raised": "$7.25M", "type": "Big company", "loc_office": [-74.006196, 40.725883]}, "5": {"index": 390, "category_code": "mobile", "founded_year": 1999, "name": "Sonim Technologies", "number_of_employees": 200, "offices": [{"description": "Corporate Headquarters", "address1": "1875 S. Grant Street", "address2": "Suite 620", "zip_code": "94402", "city": "San Mateo", "state_code": "CA", "country_code": "USA", "latitude": 37.553121, "longitude": -122.301534}], "total_money_raised": "$42.6M", "type": "Big company", "loc_office": [-122.301534, 37.553121]}, "6": {"index": 399, "category_code": "network_hosting", "founded_year": 2002, "name": "Copan Systems", "number_of_employees": 144, "offices": [{"description": "Corporate Headquarters", "address1": "1900 Pike Road", "address2": "", "zip_code": "80501", "city": "Longmont", "state_code": "CO", "country_code": "USA", "latitude": 40.138979, "longitude": -105.124465}], "total_money_raised": "$68.4M", "type": "Big company", "loc_office": [-105.124465, 40.138979]}, "7": {"index": 465, "category_code": "mobile", "founded_year": 1998, "name": "Netsize", "number_of_employees": 250, "offices": [{"description": "Headquaters", "address1": "6 Rue de la Verrerie", "address2": "", "zip_code": "92197", "city": "Meudon  (Paris)", "state_code": null, "country_code": "FRA", "latitude": 48.8943115, "longitude": 2.288319}, {"description": "", "address1": "P.O. Box 5122", "address2": "", "zip_code": "NSW 1515", "city": "West Chatswood", "state_code": null, "country_code": "AUS", "latitude": -33.867139, "longitude": 151.207114}, {"description": "", "address1": "3-5., V\u00e1rmegye utca", "address2": "", "zip_code": "1052", "city": "Budapest", "state_code": null, "country_code": "HUN", "latitude": 47.4984056, "longitude": 19.0407578}, {"description": "", "address1": "Business Center HIBISCUS Building A - 7th floor", "address2": "Via Mentore Maggini, 50", "zip_code": "00143", "city": "Rome", "state_code": null, "country_code": "ITA", "latitude": 41.8954656, "longitude": 12.4823243}, {"description": "", "address1": "Barbara Strozzilaan 382", "address2": "", "zip_code": "1083 HN", "city": "Amsterdam", "state_code": null, "country_code": "NLD", "latitude": 52.3738007, "longitude": 4.8909347}, {"description": "", "address1": "Av. Europa 19 2\u00aa pta.", "address2": "", "zip_code": "28108", "city": "Alcobendas", "state_code": null, "country_code": "ESP", "latitude": 40.4167413, "longitude": -3.7032498}, {"description": "", "address1": "G\u00f6talandsv\u00e4gen 230, Hus 22", "address2": "", "zip_code": "125 44", "city": "\u00c4lvsj\u00f6", "state_code": null, "country_code": "SWE", "latitude": 59.3327881, "longitude": 18.0644881}, {"description": "", "address1": "1st Floor, GPS House", "address2": "215 Great Portland St", "zip_code": "W1W 5PN", "city": "London", "state_code": null, "country_code": "GBR", "latitude": 51.5001524, "longitude": -0.1262362}], "total_money_raised": "$16.8M", "type": "Big company", "loc_office": [2.288319, 48.8943115]}, "8": {"index": 156, "category_code": "web", "founded_year": 2007, "name": "Next New Networks", "number_of_employees": 121, "offices": [{"description": "", "address1": "22 W 21st St", "address2": "10th Floor", "zip_code": "10010", "city": "New York", "state_code": "NY", "country_code": "USA", "latitude": 40.743808, "longitude": -73.983626}], "total_money_raised": "$27.1M", "type": "Big company", "loc_office": [-73.983626, 40.743808]}, "9": {"index": 389, "category_code": "network_hosting", "founded_year": 2002, "name": "Silver Spring Networks", "number_of_employees": 650, "offices": [{"description": "", "address1": "575 Broadway Street", "address2": "", "zip_code": "94063", "city": "Redwood City", "state_code": "CA", "country_code": "USA", "latitude": 37.4858629, "longitude": -122.2067269}], "total_money_raised": "$284M", "type": "Big company", "loc_office": [-122.2067269, 37.4858629]}, "10": {"index": 374, "category_code": "mobile", "founded_year": 2004, "name": "mFoundry", "number_of_employees": 160, "offices": [{"description": "Headquarters", "address1": "60 E Sir Francis Drake Blvd", "address2": "Suite 200", "zip_code": "94939", "city": "Larkspur", "state_code": "CA", "country_code": "USA", "latitude": 37.862592, "longitude": -122.493561}], "total_money_raised": "$40.3M", "type": "Big company", "loc_office": [-122.493561, 37.862592]}, "11": {"index": 107, "category_code": "network_hosting", "founded_year": 2000, "name": "CDNetworks", "number_of_employees": 350, "offices": [{"description": "", "address1": "441 W. Trimble Road", "address2": "", "zip_code": "CA 95134", "city": "San Jose", "state_code": "CA", "country_code": "USA", "latitude": 37.4050988, "longitude": -121.9477639}], "total_money_raised": "$96.5M", "type": "Big company", "loc_office": [-121.9477639, 37.4050988]}, "12": {"index": 213, "category_code": "web", "founded_year": 2000, "name": "deviantART", "number_of_employees": 120, "offices": [{"description": null, "address1": "7095 Hollywood Blvd #788", "address2": "", "zip_code": "90028", "city": "Hollywood", "state_code": "CA", "country_code": "USA", "latitude": 34.101578, "longitude": -118.33334}], "total_money_raised": "$13.5M", "type": "Big company", "loc_office": [-118.33334, 34.101578]}, "13": {"index": 115, "category_code": "web", "founded_year": 2000, "name": "Oversee", "number_of_employees": 150, "offices": [{"description": "Headquarters", "address1": "515 S. Flower Street Suite 4400", "address2": "", "zip_code": "90071", "city": "Los Angeles", "state_code": "CA", "country_code": "USA", "latitude": 34.051368, "longitude": -118.256305}], "total_money_raised": "$210M", "type": "Big company", "loc_office": [-118.256305, 34.051368]}, "14": {"index": 142, "category_code": "web", "founded_year": 2006, "name": "Grooveshark", "number_of_employees": 113, "offices": [{"description": "Headquarters", "address1": "201 SE 2nd Ave Ste. 209", "address2": "", "zip_code": "32601", "city": "Gainesville", "state_code": "FL", "country_code": "USA", "latitude": 29.6502461, "longitude": -82.3230981}], "total_money_raised": "$4.44M", "type": "Big company", "loc_office": [-82.3230981, 29.6502461]}, "15": {"index": 170, "category_code": "web", "founded_year": 2007, "name": "Glassdoor", "number_of_employees": 180, "offices": [{"description": "", "address1": "1 Harbor Drive", "address2": "Suite 300", "zip_code": "94965", "city": "Sausalito", "state_code": "CA", "country_code": "USA", "latitude": 37.868002, "longitude": -122.500111}], "total_money_raised": "$91.5M", "type": "Big company", "loc_office": [-122.500111, 37.868002]}, "16": {"index": 79, "category_code": "ecommerce", "founded_year": 2005, "name": "Blurb", "number_of_employees": 150, "offices": [{"description": null, "address1": "580 California St.", "address2": "Suite 300", "zip_code": "94104", "city": "San Francisco", "state_code": "CA", "country_code": "USA", "latitude": 37.792968, "longitude": -122.40414}], "total_money_raised": "$21.6M", "type": "Big company", "loc_office": [-122.40414, 37.792968]}, "17": {"index": 114, "category_code": "network_hosting", "founded_year": 2005, "name": "fabrik", "number_of_employees": 175, "offices": [{"description": null, "address1": "1825 South Grant St., Suite 200", "address2": null, "zip_code": "94402", "city": "San Mateo", "state_code": "CA", "country_code": "USA", "latitude": 37.553743, "longitude": -122.300246}], "total_money_raised": "$51.3M", "type": "Big company", "loc_office": [-122.300246, 37.553743]}, "18": {"index": 37, "category_code": "network_hosting", "founded_year": 2004, "name": "Hightail", "number_of_employees": 200, "offices": [{"description": "", "address1": "1919 S Bascom Ave", "address2": "", "zip_code": "95008", "city": "Campbell", "state_code": "CA", "country_code": "USA", "latitude": 37.288974, "longitude": -121.935688}], "total_money_raised": "$82.7M", "type": "Big company", "loc_office": [-121.935688, 37.288974]}, "19": {"index": 108, "category_code": "ecommerce", "founded_year": 2005, "name": "Etsy", "number_of_employees": 300, "offices": [{"description": "", "address1": "55 Washington St.", "address2": "5th Floor", "zip_code": "11201", "city": "Brooklyn", "state_code": "NY", "country_code": "USA", "latitude": 40.694731, "longitude": -73.983268}], "total_money_raised": "$91.7M", "type": "Big company", "loc_office": [-73.983268, 40.694731]}, "20": {"index": 38, "category_code": "web", "founded_year": 1985, "name": "AOL", "number_of_employees": 8000, "offices": [{"description": "HQ", "address1": "770 Broadway", "address2": "", "zip_code": "10003", "city": "New York", "state_code": "NY", "country_code": "USA", "latitude": 40.7311317, "longitude": -73.9919311}], "total_money_raised": "$1B", "type": "Big company", "loc_office": [-73.9919311, 40.7311317]}, "21": {"index": 173, "category_code": "ecommerce", "founded_year": 2007, "name": "Bonobos", "number_of_employees": 150, "offices": [{"description": "", "address1": "45 West 25th Street", "address2": "5th Floor", "zip_code": "10011", "city": "New York", "state_code": "NY", "country_code": "USA", "latitude": 40.7384997, "longitude": -73.9954585}], "total_money_raised": "$74.7M", "type": "Big company", "loc_office": [-73.9954585, 40.7384997]}, "22": {"index": 164, "category_code": "ecommerce", "founded_year": 2010, "name": "Magento", "number_of_employees": 275, "offices": [{"description": null, "address1": "", "address2": "", "zip_code": "", "city": "Los Angeles", "state_code": "CA", "country_code": "USA", "latitude": 34.052187, "longitude": -118.243425}], "total_money_raised": "$22.5M", "type": "Big company", "loc_office": [-118.243425, 34.052187]}, "23": {"index": 23, "category_code": "network_hosting", "founded_year": 2005, "name": "Box", "number_of_employees": 950, "offices": [{"description": "HQ", "address1": "4440 El Camino Real", "address2": "", "zip_code": "94022", "city": "Los Altos", "state_code": "CA", "country_code": "USA", "latitude": 37.425801, "longitude": -122.143701}], "total_money_raised": "$409M", "type": "Big company", "loc_office": [-122.143701, 37.425801]}, "24": {"index": 352, "category_code": "network_hosting", "founded_year": 2004, "name": "A10 Networks", "number_of_employees": 500, "offices": [{"description": "A10 Networks", "address1": "3 W Plumeria Drive", "address2": "", "zip_code": "95134", "city": "San Jose", "state_code": "CA", "country_code": "USA", "latitude": 37.391198, "longitude": -121.93393}], "total_money_raised": "$118M", "type": "Big company", "loc_office": [-121.93393, 37.391198]}, "25": {"index": 118, "category_code": "network_hosting", "founded_year": 2003, "name": "XING", "number_of_employees": 500, "offices": [{"description": "XING AG", "address1": "Dammtorstrasse 29-32", "address2": "", "zip_code": "20354", "city": "Hamburg", "state_code": null, "country_code": "DEU", "latitude": 53.555554, "longitude": 9.98793}], "total_money_raised": "\u20ac5.7M", "type": "Big company", "loc_office": [9.98793, 53.555554]}, "26": {"index": 261, "category_code": "ecommerce", "founded_year": 2007, "name": "Minted", "number_of_employees": 115, "offices": [{"description": "", "address1": "747 Front Street", "address2": "2nd Floor", "zip_code": "94111", "city": "San Francisco", "state_code": "CA", "country_code": "USA", "latitude": 37.797435, "longitude": -122.403175}], "total_money_raised": "$52.7M", "type": "Big company", "loc_office": [-122.403175, 37.797435]}, "27": {"index": 288, "category_code": "network_hosting", "founded_year": 1996, "name": "iWeb Technologies", "number_of_employees": 210, "offices": [{"description": "iWeb Headquarters", "address1": "20 Place du Commerce", "address2": "", "zip_code": "H3E 1Z6", "city": "Montreal, Qu\u00c3\u00a9bec", "state_code": null, "country_code": "CAN", "latitude": 45.467876, "longitude": -73.54266}], "total_money_raised": "$34.5M", "type": "Big company", "loc_office": [-73.54266, 45.467876]}, "28": {"index": 318, "category_code": "network_hosting", "founded_year": 1996, "name": "iWeb Technologies", "number_of_employees": 210, "offices": [{"description": "iWeb Headquarters", "address1": "20 Place du Commerce", "address2": "", "zip_code": "H3E 1Z6", "city": "Montreal, Qu\u00c3\u00a9bec", "state_code": null, "country_code": "CAN", "latitude": 45.467876, "longitude": -73.54266}], "total_money_raised": "$34.5M", "type": "Big company", "loc_office": [-73.54266, 45.467876]}, "29": {"index": 215, "category_code": "network_hosting", "founded_year": 2007, "name": "GigPark", "number_of_employees": 4, "offices": [{"description": null, "address1": "1401 Dupont Street", "address2": "Suite 627", "zip_code": "M6H2B1", "city": "Toronto", "state_code": null, "country_code": "CAN", "latitude": 43.666678, "longitude": -79.446717}], "total_money_raised": "$200k", "type": "Start-up", "loc_office": [-79.446717, 43.666678]}, "30": {"index": 247, "category_code": "mobile", "founded_year": 2007, "name": "Aloqa", "number_of_employees": 14, "offices": [{"description": "Headquarters", "address1": "Holzstr. 30", "address2": "", "zip_code": "80469", "city": "Munich", "state_code": null, "country_code": "DEU", "latitude": 48.1281209, "longitude": 11.5677288}, {"description": "Palo Alto Office", "address1": "855 El Camino Real", "address2": "Bldg 4, Suite 272", "zip_code": "94301", "city": "Palo Alto", "state_code": "CA", "country_code": "USA", "latitude": 37.43938, "longitude": -122.158804}], "total_money_raised": "$1.5M", "type": "Start-up", "loc_office": [11.5677288, 48.1281209]}, "31": {"index": 148, "category_code": "ecommerce", "founded_year": 2007, "name": "crowdSPRING", "number_of_employees": 14, "offices": [{"description": null, "address1": "1200 W. Lake St", "address2": "", "zip_code": "60607", "city": "Chicago", "state_code": "IL", "country_code": "USA", "latitude": 41.88583, "longitude": -87.657354}], "total_money_raised": "$3M", "type": "Start-up", "loc_office": [-87.657354, 41.88583]}, "32": {"index": 282, "category_code": "web", "founded_year": 2007, "name": "Birdpost", "number_of_employees": 4, "offices": [{"description": "Menlo Park, CA", "address1": "644 Menlo #201", "address2": "", "zip_code": "94025", "city": "Menlo Park", "state_code": "CA", "country_code": "USA", "latitude": 37.452011, "longitude": -122.182824}], "total_money_raised": "$350k", "type": "Start-up", "loc_office": [-122.182824, 37.452011]}, "33": {"index": 241, "category_code": "web", "founded_year": 2007, "name": "DriftToIt", "number_of_employees": 4, "offices": [{"description": "Headquarters", "address1": "8601 Six Forks Road", "address2": "Suite 400", "zip_code": "27615", "city": "Raleigh", "state_code": "NC", "country_code": "USA", "latitude": 35.897056, "longitude": -78.650229}], "total_money_raised": "$300k", "type": "Start-up", "loc_office": [-78.650229, 35.897056]}, "34": {"index": 217, "category_code": "network_hosting", "founded_year": 2007, "name": "Zecter", "number_of_employees": 8, "offices": [{"description": "", "address1": "", "address2": "", "zip_code": "94010", "city": "Burlingame", "state_code": "CA", "country_code": "USA", "latitude": 37.384756, "longitude": -122.087712}], "total_money_raised": "$2.52M", "type": "Start-up", "loc_office": [-122.087712, 37.384756]}, "35": {"index": 281, "category_code": "ecommerce", "founded_year": 2007, "name": "Closet Couture", "number_of_employees": 4, "offices": [{"description": "", "address1": "PO Box 410", "address2": "15332 Antioch Street", "zip_code": "90272", "city": "Pacific Palisades", "state_code": "CA", "country_code": "USA", "latitude": 34.078345, "longitude": -118.5475}], "total_money_raised": "$475k", "type": "Start-up", "loc_office": [-118.5475, 34.078345]}, "36": {"index": 258, "category_code": "web", "founded_year": 2007, "name": "Genbook", "number_of_employees": 12, "offices": [{"description": "Genbook", "address1": "548 Market Street", "address2": "", "zip_code": "94104", "city": "San Francisco", "state_code": "CA", "country_code": "USA", "latitude": 37.789902, "longitude": -122.4007791}], "total_money_raised": "$2.2M", "type": "Start-up", "loc_office": [-122.4007791, 37.789902]}, "37": {"index": 216, "category_code": "web", "founded_year": 2007, "name": "Infectious", "number_of_employees": 4, "offices": [{"description": null, "address1": "215 Dore Street", "address2": "", "zip_code": "94103", "city": "San Francisco", "state_code": "CA", "country_code": "USA", "latitude": 37.771927, "longitude": -122.410217}], "total_money_raised": "$750k", "type": "Start-up", "loc_office": [-122.410217, 37.771927]}, "38": {"index": 240, "category_code": "mobile", "founded_year": 2007, "name": "GeoMe", "number_of_employees": 6, "offices": [{"description": "HQ", "address1": "Rambla de Catalunya 77, 1B", "address2": "", "zip_code": "08007", "city": "Barcelona", "state_code": null, "country_code": "ESP", "latitude": 41.387411, "longitude": 2.168518}], "total_money_raised": "\u20ac300k", "type": "Start-up", "loc_office": [2.168518, 41.387411]}, "39": {"index": 171, "category_code": "web", "founded_year": 2007, "name": "Pressflip", "number_of_employees": 3, "offices": [{"description": null, "address1": "", "address2": "", "zip_code": "", "city": "", "state_code": "CA", "country_code": "USA", "latitude": 37.269175, "longitude": -119.306607}], "total_money_raised": "$110k", "type": "Start-up", "loc_office": [-119.306607, 37.269175]}, "40": {"index": 285, "category_code": "photo_video", "founded_year": 2007, "name": "StudioNow", "number_of_employees": 18, "offices": [{"description": "HQ", "address1": "1400 18th Ave. South", "address2": "Suite A2 West", "zip_code": "37212", "city": "Nashville", "state_code": "TN", "country_code": "USA", "latitude": 36.13996, "longitude": -86.796377}], "total_money_raised": "$15.3M", "type": "Start-up", "loc_office": [-86.796377, 36.13996]}, "41": {"index": 214, "category_code": "mobile", "founded_year": 2007, "name": "Transpera", "number_of_employees": 20, "offices": [{"description": "", "address1": "785 Market St.", "address2": "Suite 750", "zip_code": "94103", "city": "San Francisco", "state_code": "CA", "country_code": "USA", "latitude": 37.785792, "longitude": -122.405081}], "total_money_raised": "$19.5M", "type": "Start-up", "loc_office": [-122.405081, 37.785792]}, "42": {"index": 153, "category_code": "web", "founded_year": 2007, "name": "Clickpass", "number_of_employees": 90, "offices": [{"description": null, "address1": "", "address2": "", "zip_code": "", "city": "San Francisco", "state_code": "CA", "country_code": "USA", "latitude": 37.775196, "longitude": -122.419204}], "total_money_raised": "$20k", "type": "Start-up", "loc_office": [-122.419204, 37.775196]}, "43": {"index": 168, "category_code": "web", "founded_year": 2007, "name": "Zemanta", "number_of_employees": 30, "offices": [{"description": "London Office", "address1": "107 Cheapside", "address2": "", "zip_code": "EC2V 6DY", "city": "London", "state_code": null, "country_code": "GBR", "latitude": 51.5141566, "longitude": -0.0934254}, {"description": "New York Office", "address1": "33 West 17th St", "address2": "Suite 903", "zip_code": "10011", "city": "New York", "state_code": "NY", "country_code": "USA", "latitude": 40.7387945, "longitude": -73.9939213}, {"description": "Ljubljana Office", "address1": "Celov\u0161ka 32", "address2": "", "zip_code": "SI - 1000", "city": "Ljubljana", "state_code": null, "country_code": "SVN", "latitude": 46.0607926, "longitude": 14.4972218}], "total_money_raised": "$7.35M", "type": "Start-up", "loc_office": [-0.0934254, 51.5141566]}, "44": {"index": 264, "category_code": "web", "founded_year": 2007, "name": "Hunch", "number_of_employees": 23, "offices": [{"description": "", "address1": "54 West 21st. Street...", "address2": "", "zip_code": "10010", "city": "New York", "state_code": "NY", "country_code": "USA", "latitude": 40.741179, "longitude": -73.993182}], "total_money_raised": "$19.2M", "type": "Start-up", "loc_office": [-73.993182, 40.741179]}, "45": {"index": 129, "category_code": "web", "founded_year": 2007, "name": "What They Like", "number_of_employees": 10, "offices": [{"description": "", "address1": "221 King Street", "address2": "Suite 222", "zip_code": "94107", "city": "San Francisco", "state_code": "CA", "country_code": "USA", "latitude": 37.7776778, "longitude": -122.3921102}], "total_money_raised": "$990k", "type": "Start-up", "loc_office": [-122.3921102, 37.7776778]}, "46": {"index": 238, "category_code": "mobile", "founded_year": 2007, "name": "Bambuser", "number_of_employees": 12, "offices": [{"description": "Headqurter", "address1": "", "address2": "", "zip_code": "", "city": "Stockholm", "state_code": null, "country_code": "SWE", "latitude": 59.332788, "longitude": 18.064488}], "total_money_raised": "$2.5M", "type": "Start-up", "loc_office": [18.064488, 59.332788]}, "47": {"index": 223, "category_code": "web", "founded_year": 2007, "name": "Crowd Science", "number_of_employees": 25, "offices": [{"description": "San Jose Headquarters", "address1": "1735 Technology Drive", "address2": "Suite 780", "zip_code": "95110", "city": "San Jose", "state_code": "CA", "country_code": "USA", "latitude": 37.419041, "longitude": -122.087471}, {"description": "Toronto Office", "address1": "40 Eglinton Ave East", "address2": "Suite 200", "zip_code": "M4P 3A2", "city": "Toronto", "state_code": null, "country_code": "CAN", "latitude": 43.712309, "longitude": -79.399538}], "total_money_raised": "$2M", "type": "Start-up", "loc_office": [-122.087471, 37.419041]}, "48": {"index": 243, "category_code": "ecommerce", "founded_year": 2007, "name": "SaySwap", "number_of_employees": 12, "offices": [{"description": "Minneapolis", "address1": "7038 Balsam Lane N", "address2": "", "zip_code": "55369", "city": "Maple Grove", "state_code": "MN", "country_code": "USA", "latitude": 45.082573, "longitude": -93.423661}], "total_money_raised": "$550k", "type": "Start-up", "loc_office": [-93.423661, 45.082573]}, "49": {"index": 203, "category_code": "network_hosting", "founded_year": 2007, "name": "Memopal", "number_of_employees": 12, "offices": [{"description": null, "address1": "Via Nepal, 29", "address2": "", "zip_code": "00144", "city": "Rome", "state_code": null, "country_code": "ITA", "latitude": 41.823172, "longitude": 12.461425}], "total_money_raised": "$1M", "type": "Start-up", "loc_office": [12.461425, 41.823172]}, "50": {"index": 122, "category_code": "web", "founded_year": 2007, "name": "Sharetivity", "number_of_employees": 10, "offices": [{"description": "", "address1": "530 University Ave", "address2": "", "zip_code": "94303", "city": "Palo Alto", "state_code": "CA", "country_code": "USA", "latitude": 37.550954, "longitude": -122.315396}], "total_money_raised": "$2M", "type": "Start-up", "loc_office": [-122.315396, 37.550954]}, "51": {"index": 287, "category_code": "web", "founded_year": 2007, "name": "Quant the News", "number_of_employees": 2, "offices": [{"description": "", "address1": "2121 Avenue of the Stars,", "address2": "Suite 1250", "zip_code": "90067", "city": "Los Angeles", "state_code": "CA", "country_code": "USA", "latitude": 34.054259, "longitude": -118.414064}], "total_money_raised": "$150k", "type": "Start-up", "loc_office": [-118.414064, 34.054259]}, "52": {"index": 177, "category_code": "web", "founded_year": 2007, "name": "Naubo", "number_of_employees": 5, "offices": [{"description": null, "address1": "", "address2": "", "zip_code": "", "city": "", "state_code": "DE", "country_code": "USA", "latitude": 39.145022, "longitude": -75.386462}], "total_money_raised": "$200k", "type": "Start-up", "loc_office": [-75.386462, 39.145022]}, "53": {"index": 181, "category_code": "ecommerce", "founded_year": 2007, "name": "utoopia", "number_of_employees": 2, "offices": [{"description": null, "address1": "210 South Street", "address2": "", "zip_code": "02111", "city": "Boston", "state_code": "MA", "country_code": "USA", "latitude": 42.349889, "longitude": -71.05768}], "total_money_raised": "$100k", "type": "Start-up", "loc_office": [-71.05768, 42.349889]}, "54": {"index": 120, "category_code": "web", "founded_year": 2007, "name": "Lookery", "number_of_employees": 9, "offices": [{"description": "West Coast", "address1": "25 Kearny St", "address2": "Suite 500", "zip_code": "94108", "city": "San Francisco", "state_code": "CA", "country_code": "USA", "latitude": 37.788266, "longitude": -122.403865}, {"description": "East Coast", "address1": "1 Camp Street", "address2": "", "zip_code": "02140", "city": "Cambridge", "state_code": "MA", "country_code": "USA", "latitude": 42.398424, "longitude": -71.130297}], "total_money_raised": "$3.15M", "type": "Start-up", "loc_office": [-122.403865, 37.788266]}, "55": {"index": 186, "category_code": "ecommerce", "founded_year": 2007, "name": "Shopflick", "number_of_employees": 10, "offices": [{"description": "", "address1": "10500 W. Pico Blvd", "address2": "", "zip_code": "90064", "city": "Los Angeles", "state_code": "CA", "country_code": "USA", "latitude": 34.044939, "longitude": -118.419067}], "total_money_raised": "$8M", "type": "Start-up", "loc_office": [-118.419067, 34.044939]}, "56": {"index": 188, "category_code": "mobile", "founded_year": 2007, "name": "Heysan", "number_of_employees": 8, "offices": [{"description": null, "address1": "301 8th Street", "address2": "Suite 270", "zip_code": "94103", "city": "San Francisco", "state_code": "CA", "country_code": "USA", "latitude": 37.774997, "longitude": -122.410076}], "total_money_raised": "$875k", "type": "Start-up", "loc_office": [-122.410076, 37.774997]}, "57": {"index": 167, "category_code": "web", "founded_year": 2007, "name": "MindBites", "number_of_employees": 15, "offices": [{"description": null, "address1": "", "address2": "", "zip_code": "", "city": "", "state_code": null, "country_code": "USA", "latitude": 37.09024, "longitude": -95.712891}], "total_money_raised": "$1M", "type": "Start-up", "loc_office": [-95.712891, 37.09024]}, "58": {"index": 232, "category_code": "web", "founded_year": 2007, "name": "CrimeReports", "number_of_employees": 22, "offices": [{"description": "", "address1": "2015 South 1100 East", "address2": "", "zip_code": "84106", "city": "Salt Lake City", "state_code": "UT", "country_code": "USA", "latitude": 40.726342, "longitude": -111.858835}], "total_money_raised": "$7.2M", "type": "Start-up", "loc_office": [-111.858835, 40.726342]}, "59": {"index": 198, "category_code": "web", "founded_year": 2007, "name": "Aardvark", "number_of_employees": 30, "offices": [{"description": null, "address1": "", "address2": "", "zip_code": "94110", "city": "San Francisco", "state_code": "CA", "country_code": "USA", "latitude": 37.748676, "longitude": -122.415813}], "total_money_raised": "$6M", "type": "Start-up", "loc_office": [-122.415813, 37.748676]}, "60": {"index": 306, "category_code": "web", "founded_year": 2007, "name": "Fluther", "number_of_employees": 3, "offices": [{"description": "", "address1": "2431 Mission Street", "address2": "", "zip_code": "94110", "city": "San Francisco", "state_code": "CA", "country_code": "USA", "latitude": 37.758062, "longitude": -122.418642}], "total_money_raised": "$600k", "type": "Start-up", "loc_office": [-122.418642, 37.758062]}, "61": {"index": 262, "category_code": "web", "founded_year": 2007, "name": "Huddler", "number_of_employees": 52, "offices": [{"description": "HQ", "address1": "525 Market St.", "address2": "Suite 200", "zip_code": "94105", "city": "San Francisco", "state_code": "CA", "country_code": "USA", "latitude": 37.7893215, "longitude": -122.4013624}], "total_money_raised": "$22.8M", "type": "Start-up", "loc_office": [-122.4013624, 37.7893215]}, "62": {"index": 119, "category_code": "web", "founded_year": 2007, "name": "clipsync", "number_of_employees": 28, "offices": [{"description": "", "address1": "Pier 33 South Embarcadero", "address2": "Suite 201", "zip_code": "94111", "city": "San Francisco", "state_code": "CA", "country_code": "USA", "latitude": 37.2906027, "longitude": -121.9317853}], "total_money_raised": "$1.51M", "type": "Start-up", "loc_office": [-121.9317853, 37.2906027]}, "63": {"index": 197, "category_code": "web", "founded_year": 2007, "name": "PrepChamps", "number_of_employees": 10, "offices": [{"description": "", "address1": "", "address2": "", "zip_code": "", "city": "", "state_code": "GA", "country_code": "USA", "latitude": 35.914702, "longitude": -78.902617}], "total_money_raised": "$1.2M", "type": "Start-up", "loc_office": [-78.902617, 35.914702]}, "64": {"index": 191, "category_code": "network_hosting", "founded_year": 2007, "name": "Whois", "number_of_employees": 6, "offices": [{"description": null, "address1": "82 Genting Lane", "address2": "#03-08", "zip_code": "", "city": "Singapore", "state_code": null, "country_code": "SGP", "latitude": 1.327062, "longitude": 103.875336}], "total_money_raised": "$600k", "type": "Start-up", "loc_office": [103.875336, 1.327062]}, "65": {"index": 113, "category_code": "network_hosting", "founded_year": 2007, "name": "Mogad", "number_of_employees": 2, "offices": [{"description": null, "address1": "579 Valencia St #3", "address2": null, "zip_code": "94110", "city": "San Francisco", "state_code": "CA", "country_code": "USA", "latitude": 37.763652, "longitude": -122.421778}], "total_money_raised": "$500k", "type": "Start-up", "loc_office": [-122.421778, 37.763652]}, "66": {"index": 195, "category_code": "web", "founded_year": 2007, "name": "FlipKey", "number_of_employees": 10, "offices": [{"description": null, "address1": "80 Summer Street", "address2": "", "zip_code": "02110", "city": "Boston", "state_code": "MA", "country_code": "USA", "latitude": 42.354023, "longitude": -71.058096}], "total_money_raised": "$500k", "type": "Start-up", "loc_office": [-71.058096, 42.354023]}, "67": {"index": 311, "category_code": "ecommerce", "founded_year": 2007, "name": "Closet Couture", "number_of_employees": 4, "offices": [{"description": "", "address1": "PO Box 410", "address2": "15332 Antioch Street", "zip_code": "90272", "city": "Pacific Palisades", "state_code": "CA", "country_code": "USA", "latitude": 34.078345, "longitude": -118.5475}], "total_money_raised": "$475k", "type": "Start-up", "loc_office": [-118.5475, 34.078345]}, "68": {"index": 312, "category_code": "web", "founded_year": 2007, "name": "Birdpost", "number_of_employees": 4, "offices": [{"description": "Menlo Park, CA", "address1": "644 Menlo #201", "address2": "", "zip_code": "94025", "city": "Menlo Park", "state_code": "CA", "country_code": "USA", "latitude": 37.452011, "longitude": -122.182824}], "total_money_raised": "$350k", "type": "Start-up", "loc_office": [-122.182824, 37.452011]}, "69": {"index": 176, "category_code": "web", "founded_year": 2007, "name": "School of Everything", "number_of_employees": 8, "offices": [{"description": "", "address1": "18 Victoria Park Square", "address2": "Bethnal Green", "zip_code": "E2 9PF", "city": "London", "state_code": null, "country_code": "GBR", "latitude": 51.528817, "longitude": -0.053981}], "total_money_raised": "\u00a3350k", "type": "Start-up", "loc_office": [-0.053981, 51.528817]}, "70": {"index": 228, "category_code": "web", "founded_year": 2007, "name": "SquareClock", "number_of_employees": 10, "offices": [{"description": "", "address1": "7 rue Jean Dutilloya", "address2": "", "zip_code": "92600", "city": "Asnieres sur seine", "state_code": null, "country_code": "FRA", "latitude": 48.9064804, "longitude": 2.2860418}], "total_money_raised": "$1.25M", "type": "Start-up", "loc_office": [2.2860418, 48.9064804]}, "71": {"index": 250, "category_code": "mobile", "founded_year": 2007, "name": "Tatango", "number_of_employees": 5, "offices": [{"description": "Tatango Office", "address1": "2211 Elliott Avenue", "address2": "Suite 200", "zip_code": "98121", "city": "Bellingham", "state_code": "WA", "country_code": "USA", "latitude": 48.8784787, "longitude": -122.6242375}], "total_money_raised": "$245k", "type": "Start-up", "loc_office": [-122.6242375, 48.8784787]}, "72": {"index": 260, "category_code": "network_hosting", "founded_year": 2007, "name": "Ocarina Networks", "number_of_employees": 50, "offices": [{"description": "Headquarters", "address1": "42 Airport Parkway", "address2": "", "zip_code": "95110", "city": "San Jose", "state_code": "CA", "country_code": "USA", "latitude": 37.371056, "longitude": -121.920558}], "total_money_raised": "$20M", "type": "Start-up", "loc_office": [-121.920558, 37.371056]}, "73": {"index": 239, "category_code": "web", "founded_year": 2007, "name": "Trusera", "number_of_employees": 15, "offices": [{"description": "", "address1": "2011 East Olive", "address2": "", "zip_code": "98122", "city": "Seattle", "state_code": "WA", "country_code": "USA", "latitude": 47.617122, "longitude": -122.305994}], "total_money_raised": "$2M", "type": "Start-up", "loc_office": [-122.305994, 47.617122]}, "74": {"index": 229, "category_code": "mobile", "founded_year": 2007, "name": "hiogi", "number_of_employees": 5, "offices": [{"description": null, "address1": "Ackerstr. 3a", "address2": "", "zip_code": "10115", "city": "Berlin", "state_code": null, "country_code": "DEU", "latitude": 52.529762, "longitude": 13.397398}], "total_money_raised": "\u20ac100k", "type": "Start-up", "loc_office": [13.397398, 52.529762]}, "75": {"index": 117, "category_code": "web", "founded_year": 2007, "name": "Frevvo", "number_of_employees": 10, "offices": [{"description": null, "address1": null, "address2": null, "zip_code": null, "city": null, "state_code": null, "country_code": "USA", "latitude": 37.09024, "longitude": -95.712891}], "total_money_raised": "$500k", "type": "Start-up", "loc_office": [-95.712891, 37.09024]}, "76": {"index": 131, "category_code": "web", "founded_year": 2007, "name": "Bragster", "number_of_employees": 10, "offices": [{"description": "", "address1": "4 Elder Street", "address2": "", "zip_code": "E1 6BT", "city": "London", "state_code": null, "country_code": "GBR", "latitude": 51.5220072, "longitude": -0.0766034}], "total_money_raised": "$3.5M", "type": "Start-up", "loc_office": [-0.0766034, 51.5220072]}, "77": {"index": 315, "category_code": "photo_video", "founded_year": 2007, "name": "StudioNow", "number_of_employees": 18, "offices": [{"description": "HQ", "address1": "1400 18th Ave. South", "address2": "Suite A2 West", "zip_code": "37212", "city": "Nashville", "state_code": "TN", "country_code": "USA", "latitude": 36.13996, "longitude": -86.796377}], "total_money_raised": "$15.3M", "type": "Start-up", "loc_office": [-86.796377, 36.13996]}, "78": {"index": 234, "category_code": "mobile", "founded_year": 2007, "name": "iPling", "number_of_employees": 7, "offices": [{"description": "Main Office", "address1": "One Market Street", "address2": "Spear Tower, 36th Floor", "zip_code": "94105", "city": "San Francisco", "state_code": "CA", "country_code": "USA", "latitude": 37.791391, "longitude": -122.402859}], "total_money_raised": "$700k", "type": "Start-up", "loc_office": [-122.402859, 37.791391]}, "79": {"index": 15, "category_code": "web", "founded_year": 2007, "name": "Wakoopa", "number_of_employees": 8, "offices": [{"description": "Arts & Crafts", "address1": "Damrak 70, 254", "address2": "", "zip_code": "1012LM", "city": "Amsterdam", "state_code": null, "country_code": "NLD", "latitude": 52.3745228, "longitude": 4.8948623}], "total_money_raised": "$1M", "type": "Start-up", "loc_office": [4.8948623, 52.3745228]}, "80": {"index": 476, "category_code": "mobile", "founded_year": 2007, "name": "Tagmore Solutions", "number_of_employees": 15, "offices": [{"description": "Office", "address1": "Serrano 16", "address2": "First floor", "zip_code": "28001", "city": "Madrid", "state_code": null, "country_code": "ESP", "latitude": 40.4226918, "longitude": -3.6883074}], "total_money_raised": "\u20ac250k", "type": "Start-up", "loc_office": [-3.6883074, 40.4226918]}, "81": {"index": 471, "category_code": "web", "founded_year": 2007, "name": "Moviepilot", "number_of_employees": 43, "offices": [{"description": "German Headquarters", "address1": "Mehringdamm 33", "address2": "", "zip_code": "10961", "city": "Berlin", "state_code": null, "country_code": "DEU", "latitude": 52.4947266, "longitude": 13.398504}, {"description": "US Office", "address1": "", "address2": "", "zip_code": "", "city": "Los Angeles", "state_code": "CA", "country_code": "USA", "latitude": 34.0522342, "longitude": -118.2436849}], "total_money_raised": "$7M", "type": "Start-up", "loc_office": [13.398504, 52.4947266]}, "82": {"index": 469, "category_code": "web", "founded_year": 2007, "name": "ExtraFootie", "number_of_employees": 8, "offices": [{"description": "Brussels Office", "address1": "10 rue de tamines", "address2": "", "zip_code": "1060", "city": "Brussels", "state_code": null, "country_code": "BEL", "latitude": 50.8263475, "longitude": 4.348295}], "total_money_raised": "\u20ac300k", "type": "Start-up", "loc_office": [4.348295, 50.8263475]}, "83": {"index": 462, "category_code": "web", "founded_year": 2007, "name": "GottaPark", "number_of_employees": 9, "offices": [{"description": "San Francisco Office", "address1": "657 Mission St.", "address2": "Suite 402", "zip_code": "94105", "city": "San Francisco", "state_code": "CA", "country_code": "USA", "latitude": 37.7868333, "longitude": -122.4011603}], "total_money_raised": "$600k", "type": "Start-up", "loc_office": [-122.4011603, 37.7868333]}, "84": {"index": 460, "category_code": "network_hosting", "founded_year": 2007, "name": "InteliCloud", "number_of_employees": 40, "offices": [{"description": "Corporate Office", "address1": "895 Dove Street", "address2": "3rd Floor", "zip_code": "92660", "city": "Newport Beach", "state_code": "CA", "country_code": "USA", "latitude": 33.658546, "longitude": -117.86595}], "total_money_raised": "$3.42M", "type": "Start-up", "loc_office": [-117.86595, 33.658546]}, "85": {"index": 25, "category_code": "web", "founded_year": 2007, "name": "Seesmic", "number_of_employees": 13, "offices": [{"description": "", "address1": "1550 Bryant Street", "address2": "Suite 890", "zip_code": "94103", "city": "San Francisco", "state_code": "CA", "country_code": "USA", "latitude": 37.775196, "longitude": -122.419204}], "total_money_raised": "$16M", "type": "Start-up", "loc_office": [-122.419204, 37.775196]}, "86": {"index": 451, "category_code": "web", "founded_year": 2007, "name": "GoGoPin", "number_of_employees": 10, "offices": [{"description": "GoGoPin Headquarters", "address1": "6226 196TH ST SW", "address2": "SUITE 1A", "zip_code": "98036", "city": "Lynnwood", "state_code": "WA", "country_code": "USA", "latitude": 47.8211634, "longitude": -122.3182683}], "total_money_raised": "$800k", "type": "Start-up", "loc_office": [-122.3182683, 47.8211634]}, "87": {"index": 450, "category_code": "web", "founded_year": 2007, "name": "Healogica", "number_of_employees": 3, "offices": [{"description": "World Headquarters", "address1": "47 West 76th Street", "address2": "#4", "zip_code": "10023", "city": "New York", "state_code": "NY", "country_code": "USA", "latitude": 40.779959, "longitude": -73.976151}], "total_money_raised": "$890k", "type": "Start-up", "loc_office": [-73.976151, 40.779959]}, "88": {"index": 444, "category_code": "ecommerce", "founded_year": 2007, "name": "Teachable", "number_of_employees": 5, "offices": [{"description": "Headquarters", "address1": "", "address2": "", "zip_code": "RG25 3AN", "city": "Basingstoke", "state_code": null, "country_code": "GBR", "latitude": 51.2057651, "longitude": -1.0912028}], "total_money_raised": "\u00a380k", "type": "Start-up", "loc_office": [-1.0912028, 51.2057651]}, "89": {"index": 436, "category_code": "web", "founded_year": 2007, "name": "HealthEngine", "number_of_employees": 12, "offices": [{"description": "Western Australia Office", "address1": "6/663 Newcastle St.", "address2": "Leederville", "zip_code": "6007", "city": "Perth", "state_code": null, "country_code": "AUS", "latitude": -31.97822, "longitude": 115.89084}], "total_money_raised": "$10.4M", "type": "Start-up", "loc_office": [115.89084, -31.97822]}, "90": {"index": 435, "category_code": "network_hosting", "founded_year": 2007, "name": "NetHooks", "number_of_employees": 4, "offices": [{"description": "Mountain View, USA", "address1": "1901 Old Middlefield Way", "address2": "", "zip_code": "94043", "city": "Mountain View", "state_code": "CA", "country_code": "USA", "latitude": 37.41364, "longitude": -122.086989}], "total_money_raised": "$100k", "type": "Start-up", "loc_office": [-122.086989, 37.41364]}, "91": {"index": 14, "category_code": "web", "founded_year": 2007, "name": "Spotplex", "number_of_employees": 3, "offices": [{"description": null, "address1": "3160 De La Cruz Blvd., #202", "address2": null, "zip_code": "95054", "city": "Santa Clara", "state_code": "CA", "country_code": "USA", "latitude": 37.380101, "longitude": -121.940749}], "total_money_raised": "$450k", "type": "Start-up", "loc_office": [-121.940749, 37.380101]}, "92": {"index": 430, "category_code": "ecommerce", "founded_year": 2007, "name": "Snipi", "number_of_employees": 9, "offices": [{"description": "Philadelphia Headquarters", "address1": "109 South 13th Street", "address2": "Suite 117B", "zip_code": "19107", "city": "Philadelphia", "state_code": "PA", "country_code": "USA", "latitude": 39.9502045, "longitude": -75.1618758}], "total_money_raised": "$4.03M", "type": "Start-up", "loc_office": [-75.1618758, 39.9502045]}, "93": {"index": 384, "category_code": "mobile", "founded_year": 2007, "name": "RideCharge", "number_of_employees": 75, "offices": [{"description": "Headquarters", "address1": "5904 Richmond Hwy", "address2": "Suite 600", "zip_code": "22303", "city": "Alexandria", "state_code": "VA", "country_code": "USA", "latitude": 38.814329, "longitude": -77.038605}], "total_money_raised": "$8.6M", "type": "Start-up", "loc_office": [-77.038605, 38.814329]}, "94": {"index": 194, "category_code": "web", "founded_year": 2007, "name": "TeachStreet", "number_of_employees": 8, "offices": [{"description": "", "address1": "", "address2": "", "zip_code": "", "city": "Seattle", "state_code": "WA", "country_code": "USA", "latitude": 47.6171788, "longitude": -122.3370801}], "total_money_raised": "$3.45M", "type": "Start-up", "loc_office": [-122.3370801, 47.6171788]}, "95": {"index": 337, "category_code": "web", "founded_year": 2007, "name": "Gowalla", "number_of_employees": 22, "offices": [{"description": "Austin Headquarters", "address1": "", "address2": "", "zip_code": "78701", "city": "Austin", "state_code": "TX", "country_code": "USA", "latitude": 30.2729209, "longitude": -97.7443863}], "total_money_raised": "$10.4M", "type": "Start-up", "loc_office": [-97.7443863, 30.2729209]}, "96": {"index": 101, "category_code": "mobile", "founded_year": 2007, "name": "Utterz", "number_of_employees": 3, "offices": [{"description": null, "address1": "63 Great Road", "address2": "", "zip_code": "01754", "city": "Maynard", "state_code": "MA", "country_code": "USA", "latitude": 42.431555, "longitude": -71.483077}], "total_money_raised": "$4M", "type": "Start-up", "loc_office": [-71.483077, 42.431555]}, "97": {"index": 351, "category_code": "mobile", "founded_year": 2007, "name": "maufait", "number_of_employees": 2, "offices": [{"description": "", "address1": "", "address2": "", "zip_code": "", "city": "Omaha", "state_code": "NE", "country_code": "USA", "latitude": 41.259751, "longitude": -95.942336}], "total_money_raised": "$25k", "type": "Start-up", "loc_office": [-95.942336, 41.259751]}, "98": {"index": 334, "category_code": "mobile", "founded_year": 2007, "name": "Metranome", "number_of_employees": 8, "offices": [{"description": "Head Office", "address1": "515 Dotzert Ct #5", "address2": "", "zip_code": "N2L 6A7", "city": "Waterloo", "state_code": null, "country_code": "CAN", "latitude": 43.494754, "longitude": -80.530888}], "total_money_raised": "$2M", "type": "Start-up", "loc_office": [-80.530888, 43.494754]}, "99": {"index": 90, "category_code": "web", "founded_year": 2007, "name": "RepairPal", "number_of_employees": 25, "offices": [{"description": "", "address1": "6005 Shellmound St", "address2": "Suite 200", "zip_code": "94608", "city": "Emeryville", "state_code": "CA", "country_code": "USA", "latitude": 37.838225, "longitude": -122.296411}], "total_money_raised": "$21.3M", "type": "Start-up", "loc_office": [-122.296411, 37.838225]}, "100": {"index": 99, "category_code": "ecommerce", "founded_year": 2007, "name": "Apprema", "number_of_employees": 4, "offices": [{"description": null, "address1": null, "address2": null, "zip_code": null, "city": "Sunnyvale", "state_code": "CA", "country_code": "USA", "latitude": 37.368594, "longitude": -122.034021}], "total_money_raised": "$800k", "type": "Start-up", "loc_office": [-122.034021, 37.368594]}, "101": {"index": 355, "category_code": "web", "founded_year": 2007, "name": "TasteSpace", "number_of_employees": 10, "offices": [{"description": "", "address1": "185 Madison Ave", "address2": "Suite 1602", "zip_code": "10016", "city": "New York", "state_code": "NY", "country_code": "USA", "latitude": 40.747819, "longitude": -73.982544}], "total_money_raised": "$300k", "type": "Start-up", "loc_office": [-73.982544, 40.747819]}, "102": {"index": 356, "category_code": "web", "founded_year": 2007, "name": "DocVerse", "number_of_employees": 5, "offices": [{"description": "", "address1": "530 Howard St.", "address2": "Suite 450", "zip_code": "94105", "city": "San Francisco", "state_code": "CA", "country_code": "USA", "latitude": 37.788115, "longitude": -122.397141}], "total_money_raised": "$1.3M", "type": "Start-up", "loc_office": [-122.397141, 37.788115]}, "103": {"index": 346, "category_code": "web", "founded_year": 2007, "name": "Britely", "number_of_employees": 11, "offices": [{"description": "", "address1": "1895 El Camino Real", "address2": "", "zip_code": "94306", "city": "Palo Alto", "state_code": "CA", "country_code": "USA", "latitude": 37.458766, "longitude": -122.172519}], "total_money_raised": "$3.9M", "type": "Start-up", "loc_office": [-122.172519, 37.458766]}, "104": {"index": 330, "category_code": "mobile", "founded_year": 2007, "name": "Buzzd", "number_of_employees": 9, "offices": [{"description": "buzzd HQ", "address1": "833 Broadway", "address2": "", "zip_code": "10003", "city": "New York", "state_code": "NY", "country_code": "USA", "latitude": 40.733928, "longitude": -73.991334}], "total_money_raised": "$4M", "type": "Start-up", "loc_office": [-73.991334, 40.733928]}, "105": {"index": 84, "category_code": "web", "founded_year": 2007, "name": "Disqus", "number_of_employees": 43, "offices": [{"description": "", "address1": "301 Howard", "address2": "3rd Floor", "zip_code": "94105", "city": "San Francisco", "state_code": "CA", "country_code": "USA", "latitude": 37.786906, "longitude": -122.397672}], "total_money_raised": "$10.5M", "type": "Start-up", "loc_office": [-122.397672, 37.786906]}, "106": {"index": 13, "category_code": "web", "founded_year": 2007, "name": "SodaHead", "number_of_employees": 25, "offices": [{"description": "", "address1": "16161 Ventura Blvd.", "address2": "Suite C PMB 461", "zip_code": "91436", "city": "Encino", "state_code": "CA", "country_code": "USA", "latitude": 37.269175, "longitude": -119.306607}], "total_money_raised": "$12.7M", "type": "Start-up", "loc_office": [-119.306607, 37.269175]}, "107": {"index": 12, "category_code": "web", "founded_year": 2007, "name": "CriticalMetrics", "number_of_employees": 4, "offices": [{"description": null, "address1": null, "address2": null, "zip_code": null, "city": null, "state_code": "CA", "country_code": "USA", "latitude": 37.269175, "longitude": -119.306607}], "total_money_raised": "$100k", "type": "Start-up", "loc_office": [-119.306607, 37.269175]}, "108": {"index": 6, "category_code": "web", "founded_year": 2007, "name": "Mahalo", "number_of_employees": 40, "offices": [{"description": "", "address1": "3525 Eastham Dr.", "address2": "", "zip_code": "90232", "city": "Culver City", "state_code": "CA", "country_code": "USA", "latitude": 34.017606, "longitude": -118.487267}], "total_money_raised": "$21M", "type": "Start-up", "loc_office": [-118.487267, 34.017606]}, "109": {"index": 219, "category_code": "web", "founded_year": 2007, "name": "GreenNote", "number_of_employees": 65, "offices": [{"description": "", "address1": "", "address2": "", "zip_code": "", "city": "Mather", "state_code": "CA", "country_code": "USA", "latitude": 37.492685, "longitude": -122.227765}], "total_money_raised": "$4.2M", "type": "Start-up", "loc_office": [-122.227765, 37.492685]}, "110": {"index": 221, "category_code": "web", "founded_year": 2007, "name": "Cloudcity", "number_of_employees": 40, "offices": [{"description": null, "address1": "Unit A, The Courtyard", "address2": "Alban Park, Hatfield Rd", "zip_code": "AL4 0LA", "city": "St Albans", "state_code": null, "country_code": "GBR", "latitude": 51.750141, "longitude": -0.280535}], "total_money_raised": "\u00a33M", "type": "Start-up", "loc_office": [-0.280535, 51.750141]}, "111": {"index": 286, "category_code": "web", "founded_year": 2007, "name": "GoodGuide", "number_of_employees": 10, "offices": [{"description": "", "address1": "", "address2": "", "zip_code": "94111", "city": "San Francisco", "state_code": "CA", "country_code": "USA", "latitude": 37.7983181, "longitude": -122.4000032}], "total_money_raised": "$14.2M", "type": "Start-up", "loc_office": [-122.4000032, 37.7983181]}, "112": {"index": 343, "category_code": "web", "founded_year": 2007, "name": "Reframe It", "number_of_employees": 10, "offices": [{"description": "HQ", "address1": "795 Folsom Street", "address2": "", "zip_code": "94103", "city": "San Francisco", "state_code": "CA", "country_code": "USA", "latitude": 37.782163, "longitude": -122.400591}], "total_money_raised": "$3.18M", "type": "Start-up", "loc_office": [-122.400591, 37.782163]}, "113": {"index": 179, "category_code": "web", "founded_year": 2007, "name": "Kublax", "number_of_employees": 10, "offices": [{"description": "Kublax Finan. Tech., Ltd.", "address1": "2nd Floor, Cardiff House", "address2": "Tilling Road", "zip_code": "NW2 1LJ", "city": "London", "state_code": null, "country_code": "GBR", "latitude": 51.5001524, "longitude": -0.1262362}], "total_money_raised": "\u20ac1M", "type": "Start-up", "loc_office": [-0.1262362, 51.5001524]}, "114": {"index": 46, "category_code": "network_hosting", "founded_year": 2007, "name": "Socialthing", "number_of_employees": 5, "offices": [{"description": "HQ", "address1": "1050 Walnut Street", "address2": "Suite 101", "zip_code": "80302", "city": "Boulder", "state_code": "CO", "country_code": "USA", "latitude": 40.0186731, "longitude": -105.2762236}], "total_money_raised": "$415k", "type": "Start-up", "loc_office": [-105.2762236, 40.0186731]}, "115": {"index": 48, "category_code": "network_hosting", "founded_year": 2007, "name": "Zivity", "number_of_employees": 16, "offices": [{"description": "", "address1": "329 Bryant Street", "address2": "Suite 2D", "zip_code": "94107", "city": "San Francisco", "state_code": "CA", "country_code": "USA", "latitude": 37.789488, "longitude": -122.397593}], "total_money_raised": "$8M", "type": "Start-up", "loc_office": [-122.397593, 37.789488]}, "116": {"index": 50, "category_code": "web", "founded_year": 2007, "name": "Docstoc", "number_of_employees": 40, "offices": [{"description": "", "address1": "409 S Santa Monica Blvd", "address2": "Suite 2A", "zip_code": "90401", "city": "Santa Monica", "state_code": "CA", "country_code": "USA", "latitude": 34.018275, "longitude": -118.495025}], "total_money_raised": "$4M", "type": "Start-up", "loc_office": [-118.495025, 34.018275]}, "117": {"index": 55, "category_code": "web", "founded_year": 2007, "name": "EyeJot", "number_of_employees": 5, "offices": [{"description": "", "address1": "315 5th Ave South", "address2": "Suite 800", "zip_code": "98104", "city": "Seattle", "state_code": "WA", "country_code": "USA", "latitude": 47.5999337, "longitude": -122.3276962}], "total_money_raised": "$1.15M", "type": "Start-up", "loc_office": [-122.3276962, 47.5999337]}, "118": {"index": 59, "category_code": "web", "founded_year": 2007, "name": "Mixx", "number_of_employees": 11, "offices": [{"description": "", "address1": "", "address2": "", "zip_code": "22102", "city": "McLean", "state_code": "VA", "country_code": "USA", "latitude": 38.003376, "longitude": -79.420926}], "total_money_raised": "$3.5M", "type": "Start-up", "loc_office": [-79.420926, 38.003376]}, "119": {"index": 397, "category_code": "photo_video", "founded_year": 2007, "name": "Qualvu", "number_of_employees": 80, "offices": [{"description": "Corporate Headquarters", "address1": "12039 W Alameda Pkwy", "address2": "#Z-2", "zip_code": "80228", "city": "Lakewood", "state_code": "CO", "country_code": "USA", "latitude": 39.661171, "longitude": -105.352174}], "total_money_raised": "$2.6M", "type": "Start-up", "loc_office": [-105.352174, 39.661171]}, "120": {"index": 394, "category_code": "web", "founded_year": 2007, "name": "Stiki Digital", "number_of_employees": 6, "offices": [{"description": "Plu & Play Tech Center", "address1": "440 N. Wolfe Road", "address2": "", "zip_code": "94085", "city": "Sunnyvale", "state_code": "CA", "country_code": "USA", "latitude": 37.384239, "longitude": -122.012475}], "total_money_raised": "$325k", "type": "Start-up", "loc_office": [-122.012475, 37.384239]}, "121": {"index": 64, "category_code": "web", "founded_year": 2007, "name": "Feedjit", "number_of_employees": 2, "offices": [{"description": "", "address1": "2721 E Lake Sammamish Pkwy SE", "address2": "", "zip_code": "98075-7423", "city": "Sammamish", "state_code": "WA", "country_code": "USA", "latitude": 47.585114, "longitude": -122.084356}], "total_money_raised": "$450k", "type": "Start-up", "loc_office": [-122.084356, 47.585114]}, "122": {"index": 66, "category_code": "web", "founded_year": 2007, "name": "UpDown", "number_of_employees": 5, "offices": [{"description": null, "address1": "", "address2": "", "zip_code": "", "city": "Cambridge", "state_code": "MA", "country_code": "USA", "latitude": 42.375392, "longitude": -71.118487}], "total_money_raised": "$1.75M", "type": "Start-up", "loc_office": [-71.118487, 42.375392]}, "123": {"index": 388, "category_code": "web", "founded_year": 2007, "name": "mydeco", "number_of_employees": 35, "offices": [{"description": "", "address1": "Newcombe House", "address2": "45 Notting Hill Gate", "zip_code": "W11 3LQ", "city": "London", "state_code": null, "country_code": "GBR", "latitude": 51.518101, "longitude": -0.468617}], "total_money_raised": "\u00a312.5M", "type": "Start-up", "loc_office": [-0.468617, 51.518101]}, "124": {"index": 386, "category_code": "web", "founded_year": 2007, "name": "Green Apple Media", "number_of_employees": 50, "offices": [{"description": "Mother Ship", "address1": "14 - 16 Lord Edward St", "address2": "Dublin 2", "zip_code": "D2", "city": "Dublin", "state_code": null, "country_code": "IRL", "latitude": 53.3438298, "longitude": -6.2689465}], "total_money_raised": "$132M", "type": "Start-up", "loc_office": [-6.2689465, 53.3438298]}, "125": {"index": 316, "category_code": "web", "founded_year": 2007, "name": "GoodGuide", "number_of_employees": 10, "offices": [{"description": "", "address1": "", "address2": "", "zip_code": "94111", "city": "San Francisco", "state_code": "CA", "country_code": "USA", "latitude": 37.7983181, "longitude": -122.4000032}], "total_money_raised": "$14.2M", "type": "Start-up", "loc_office": [-122.4000032, 37.7983181]}, "126": {"index": 73, "category_code": "web", "founded_year": 2007, "name": "SueEasy", "number_of_employees": 6, "offices": [{"description": null, "address1": "California Street", "address2": "", "zip_code": "94040", "city": "Mountain View", "state_code": "CA", "country_code": "USA", "latitude": 37.401355, "longitude": -122.104099}], "total_money_raised": "$135k", "type": "Start-up", "loc_office": [-122.104099, 37.401355]}, "127": {"index": 377, "category_code": "web", "founded_year": 2007, "name": "WebNotes", "number_of_employees": 5, "offices": [{"description": "Headquarters", "address1": "100 Memorial Drive", "address2": "Suite 11-21C", "zip_code": "02142", "city": "Cambridge", "state_code": "MA", "country_code": "USA", "latitude": 42.360098, "longitude": -71.085909}], "total_money_raised": "$345k", "type": "Start-up", "loc_office": [-71.085909, 42.360098]}, "128": {"index": 375, "category_code": "mobile", "founded_year": 2007, "name": "REMOTV", "number_of_employees": 7, "offices": [{"description": "Headquarters", "address1": "150 Munson Street", "address2": "Suite 101", "zip_code": "06511", "city": "New Haven", "state_code": "CT", "country_code": "USA", "latitude": 41.3215202, "longitude": -72.9294232}], "total_money_raised": "$2.7M", "type": "Start-up", "loc_office": [-72.9294232, 41.3215202]}, "129": {"index": 77, "category_code": "web", "founded_year": 2007, "name": "Whiskey Media", "number_of_employees": 12, "offices": [{"description": "HQ", "address1": "921 Front St.", "address2": "Suite #100", "zip_code": "94111", "city": "San Francisco", "state_code": "CA", "country_code": "USA", "latitude": 37.856331, "longitude": -122.495222}], "total_money_raised": "$4M", "type": "Start-up", "loc_office": [-122.495222, 37.856331]}, "130": {"index": 371, "category_code": "web", "founded_year": 2007, "name": "LetsCram", "number_of_employees": 5, "offices": [{"description": "Let's Cram, Inc.", "address1": "402 E Gutierrez", "address2": "", "zip_code": "93101", "city": "Santa Barbara", "state_code": "CA", "country_code": "USA", "latitude": 34.420316, "longitude": -119.688412}], "total_money_raised": "$655k", "type": "Start-up", "loc_office": [-119.688412, 34.420316]}, "131": {"index": 78, "category_code": "web", "founded_year": 2007, "name": "Polyvore", "number_of_employees": 73, "offices": [{"description": "", "address1": "", "address2": "", "zip_code": "", "city": "Mountain View", "state_code": "CA", "country_code": "USA", "latitude": 37.386175, "longitude": -122.083487}], "total_money_raised": "$22.1M", "type": "Start-up", "loc_office": [-122.083487, 37.386175]}, "132": {"index": 47, "category_code": "web", "founded_year": 2007, "name": "Filtrbox", "number_of_employees": 14, "offices": [{"description": "HQ", "address1": "325 Lytton Ave", "address2": "", "zip_code": "94301", "city": "Palo Alto", "state_code": "CA", "country_code": "USA", "latitude": 40.010492, "longitude": -105.276843}], "total_money_raised": "$1.92M", "type": "Start-up", "loc_office": [-105.276843, 40.010492]}, "133": {"index": 417, "category_code": "network_hosting", "founded_year": 2007, "name": "ScoreGrid", "number_of_employees": 10, "offices": [{"description": "", "address1": "158 Jan Smuts Avenue", "address2": "Rosebank", "zip_code": "2192", "city": "Johannesburg", "state_code": null, "country_code": "ZAF", "latitude": -26.1470966, "longitude": 28.0354352}], "total_money_raised": "$700k", "type": "Start-up", "loc_office": [28.0354352, -26.1470966]}, "134": {"index": 365, "category_code": "network_hosting", "founded_year": 2007, "name": "galaxyadvisors", "number_of_employees": 7, "offices": [{"description": "HQ", "address1": "25 Rindgefield Street", "address2": "", "zip_code": "02140", "city": "Cambridge", "state_code": "MA", "country_code": "USA", "latitude": 42.393551, "longitude": -71.128231}, {"description": "Office Switzerland", "address1": "Laurenzenvorstadt 69", "address2": "", "zip_code": "5000", "city": "Aarau", "state_code": null, "country_code": "CHE", "latitude": 47.394253, "longitude": 8.0493789}], "total_money_raised": "$600k", "type": "Start-up", "loc_office": [-71.128231, 42.393551]}, "135": {"index": 36, "category_code": "web", "founded_year": 2007, "name": "Buxfer", "number_of_employees": 4, "offices": [{"description": "", "address1": "", "address2": "", "zip_code": "", "city": "Mountain View", "state_code": "CA", "country_code": "USA", "latitude": 37.400465, "longitude": -122.073003}], "total_money_raised": "$315k", "type": "Start-up", "loc_office": [-122.073003, 37.400465]}, "136": {"index": 276, "category_code": "web", "founded_year": 2007, "name": "Fluther", "number_of_employees": 3, "offices": [{"description": "", "address1": "2431 Mission Street", "address2": "", "zip_code": "94110", "city": "San Francisco", "state_code": "CA", "country_code": "USA", "latitude": 37.758062, "longitude": -122.418642}], "total_money_raised": "$600k", "type": "Start-up", "loc_office": [-122.418642, 37.758062]}, "137": {"index": 110, "category_code": "web", "founded_year": 2007, "name": "TravelMuse", "number_of_employees": 11, "offices": [{"description": "", "address1": "55 Broad Street", "address2": "24th Floor", "zip_code": "10004", "city": "New York", "state_code": "NY", "country_code": "USA", "latitude": 37.402802, "longitude": -122.117418}], "total_money_raised": "$5.6M", "type": "Start-up", "loc_office": [-122.117418, 37.402802]}, "138": {"index": 427, "category_code": "ecommerce", "founded_year": 2008, "name": "Proper Cloth", "number_of_employees": 1, "offices": [{"description": "New York", "address1": "12 Desbrosses Street", "address2": "", "zip_code": "10013", "city": "New York", "state_code": "NY", "country_code": "USA", "latitude": 40.723351, "longitude": -74.008767}], "total_money_raised": "$100k", "type": "Start-up", "loc_office": [-74.008767, 40.723351]}, "139": {"index": 121, "category_code": "web", "founded_year": 2007, "name": "Mill River Labs", "number_of_employees": 5, "offices": [{"description": null, "address1": "257 Castro Street", "address2": "Suite 200", "zip_code": "94041", "city": "Mountain View", "state_code": "CA", "country_code": "USA", "latitude": 37.392962, "longitude": -122.079114}], "total_money_raised": "$900k", "type": "Start-up", "loc_office": [-122.079114, 37.392962]}, "140": {"index": 373, "category_code": "web", "founded_year": 2008, "name": "People Capital", "number_of_employees": 10, "offices": [{"description": "Headquarters", "address1": "", "address2": "", "zip_code": "", "city": "New York", "state_code": "NY", "country_code": "USA", "latitude": 40.756054, "longitude": -73.986951}], "total_money_raised": "$2.5M", "type": "Start-up", "loc_office": [-73.986951, 40.756054]}, "141": {"index": 408, "category_code": "mobile", "founded_year": 2008, "name": "Socialize", "number_of_employees": 10, "offices": [{"description": "Headquarters", "address1": "153 Townsend St", "address2": "Suite 9057", "zip_code": "94107", "city": "San Francisco", "state_code": "CA", "country_code": "USA", "latitude": 38.88521, "longitude": -76.998641}], "total_money_raised": "$1.82M", "type": "Start-up", "loc_office": [-76.998641, 38.88521]}, "142": {"index": 376, "category_code": "web", "founded_year": 2008, "name": "MarketRiders", "number_of_employees": 4, "offices": [{"description": "", "address1": "530 Lytton Ave", "address2": "2nd Floor", "zip_code": "94301", "city": "Palo Alto", "state_code": "CA", "country_code": "USA", "latitude": 37.8097439, "longitude": -121.9909454}], "total_money_raised": "$200k", "type": "Start-up", "loc_office": [-121.9909454, 37.8097439]}, "143": {"index": 166, "category_code": "web", "founded_year": 2008, "name": "Intent", "number_of_employees": 6, "offices": [{"description": null, "address1": "", "address2": "", "zip_code": "", "city": "Santa Monica", "state_code": "CA", "country_code": "USA", "latitude": 34.01052, "longitude": -118.495981}], "total_money_raised": "$250k", "type": "Start-up", "loc_office": [-118.495981, 34.01052]}, "144": {"index": 402, "category_code": "web", "founded_year": 2008, "name": "KODA", "number_of_employees": 15, "offices": [{"description": "San Francisco", "address1": "220 Montgomery Street", "address2": "#991", "zip_code": "94104", "city": "San Francisco", "state_code": "CA", "country_code": "USA", "latitude": 37.788796, "longitude": -122.40971}, {"description": "New Orleans", "address1": "716 Adams Street", "address2": "", "zip_code": "70118", "city": "New Orleans", "state_code": "LA", "country_code": "USA", "latitude": 29.9739941, "longitude": -90.0822015}], "total_money_raised": "$4.5M", "type": "Start-up", "loc_office": [-122.40971, 37.788796]}, "145": {"index": 404, "category_code": "web", "founded_year": 2008, "name": "Jobulous", "number_of_employees": 6, "offices": [{"description": "New York", "address1": "", "address2": "", "zip_code": "10011", "city": "New York", "state_code": "NY", "country_code": "USA", "latitude": 40.7464969, "longitude": -74.0094471}, {"description": "Boston", "address1": "", "address2": "", "zip_code": "", "city": "Boston", "state_code": "MA", "country_code": "USA", "latitude": 42.35892, "longitude": -71.05781}], "total_money_raised": "$200k", "type": "Start-up", "loc_office": [-74.0094471, 40.7464969]}, "146": {"index": 491, "category_code": "ecommerce", "founded_year": 2008, "name": "Pipit Interactive", "number_of_employees": 10, "offices": [{"description": "Los Angeles", "address1": "1014 Amherst Ave.", "address2": "", "zip_code": "90049", "city": "Los Angeles", "state_code": "CA", "country_code": "USA", "latitude": 34.045499, "longitude": -118.47036}], "total_money_raised": "$900k", "type": "Start-up", "loc_office": [-118.47036, 34.045499]}, "147": {"index": 257, "category_code": "web", "founded_year": 2008, "name": "Open Places", "number_of_employees": 3, "offices": [{"description": "San Francisco Office", "address1": "616 Arkansas St", "address2": "", "zip_code": "94107", "city": "San Francisco", "state_code": "CA", "country_code": "USA", "latitude": 37.758352, "longitude": -122.398379}], "total_money_raised": "$1.1M", "type": "Start-up", "loc_office": [-122.398379, 37.758352]}, "148": {"index": 381, "category_code": "mobile", "founded_year": 2008, "name": "Drync", "number_of_employees": 8, "offices": [{"description": "Headquarters", "address1": "376 Boylston St.", "address2": "Suite 501", "zip_code": "02115", "city": "Boston", "state_code": "MA", "country_code": "USA", "latitude": 42.376862, "longitude": -71.14462}], "total_money_raised": "$1.77M", "type": "Start-up", "loc_office": [-71.14462, 42.376862]}, "149": {"index": 382, "category_code": "network_hosting", "founded_year": 2008, "name": "Zentact", "number_of_employees": 2, "offices": [{"description": "", "address1": "One Embarcadero Ctr", "address2": "#2200", "zip_code": "94111", "city": "San Franciso", "state_code": "CA", "country_code": "USA", "latitude": 37.794891, "longitude": -122.397901}], "total_money_raised": "$250k", "type": "Start-up", "loc_office": [-122.397901, 37.794891]}, "150": {"index": 398, "category_code": "ecommerce", "founded_year": 2008, "name": "Zopim", "number_of_employees": 40, "offices": [{"description": "", "address1": "8 Prince Georges Park", "address2": "Extension Block", "zip_code": "118407", "city": "Singapore", "state_code": null, "country_code": "SGP", "latitude": 1.290801, "longitude": 103.7807403}], "total_money_raised": "$392k", "type": "Start-up", "loc_office": [103.7807403, 1.290801]}, "151": {"index": 393, "category_code": "mobile", "founded_year": 2008, "name": "5th Finger", "number_of_employees": 50, "offices": [{"description": "Headquarters", "address1": "222 Sutter St Suite 450", "address2": "", "zip_code": "94108", "city": "San Francisco", "state_code": "CA", "country_code": "USA", "latitude": 37.7900992, "longitude": -122.4021988}], "total_money_raised": "$7M", "type": "Start-up", "loc_office": [-122.4021988, 37.7900992]}, "152": {"index": 255, "category_code": "web", "founded_year": 2008, "name": "Posterous", "number_of_employees": 9, "offices": [{"description": "", "address1": "", "address2": "", "zip_code": "", "city": "San Francisco", "state_code": "CA", "country_code": "USA", "latitude": 37.775196, "longitude": -122.419204}], "total_money_raised": "$10.1M", "type": "Start-up", "loc_office": [-122.419204, 37.775196]}, "153": {"index": 370, "category_code": "ecommerce", "founded_year": 2008, "name": "1DayMakeover", "number_of_employees": 6, "offices": [{"description": "", "address1": "6 Hutton Centre", "address2": "Suite 550", "zip_code": "92707", "city": "Santa Ana", "state_code": "CA", "country_code": "USA", "latitude": 33.69568, "longitude": -117.866187}], "total_money_raised": "$50k", "type": "Start-up", "loc_office": [-117.866187, 33.69568]}, "154": {"index": 385, "category_code": "web", "founded_year": 2008, "name": "StockTwits", "number_of_employees": 12, "offices": [{"description": "", "address1": "600 West Broadway", "address2": "Suite 910", "zip_code": "92101", "city": "San Diego", "state_code": "CA", "country_code": "USA", "latitude": 32.7161896, "longitude": -117.168697}], "total_money_raised": "$8.6M", "type": "Start-up", "loc_office": [-117.168697, 32.7161896]}, "155": {"index": 274, "category_code": "mobile", "founded_year": 2008, "name": "Poll Everywhere", "number_of_employees": 20, "offices": [{"description": "Global Head Quarters", "address1": "1550 Bryant St", "address2": "Suite 700", "zip_code": "94103", "city": "San Francisco", "state_code": "CA", "country_code": "USA", "latitude": 41.864917, "longitude": -87.625271}], "total_money_raised": "$20k", "type": "Start-up", "loc_office": [-87.625271, 41.864917]}, "156": {"index": 268, "category_code": "web", "founded_year": 2008, "name": "MyFrontSteps", "number_of_employees": 29, "offices": [{"description": "Corporate Headquarters", "address1": "55 -33rd St", "address2": "", "zip_code": "S7K 0R8", "city": "Saskatoon", "state_code": null, "country_code": "CAN", "latitude": 52.143886, "longitude": -106.6634565}], "total_money_raised": "$3M", "type": "Start-up", "loc_office": [-106.6634565, 52.143886]}, "157": {"index": 297, "category_code": "mobile", "founded_year": 2008, "name": "Pixelpipe", "number_of_employees": 10, "offices": [{"description": "World Headquarters", "address1": "321 7th St", "address2": "", "zip_code": "94103", "city": "San Francisco", "state_code": "CA", "country_code": "USA", "latitude": 37.764395, "longitude": -122.401024}], "total_money_raised": "$2.3M", "type": "Start-up", "loc_office": [-122.401024, 37.764395]}, "158": {"index": 310, "category_code": "mobile", "founded_year": 2008, "name": "Carticipate", "number_of_employees": 3, "offices": [{"description": "San Francisco", "address1": "2 Townsend Street", "address2": "", "zip_code": "94107", "city": "San Francisco", "state_code": "CA", "country_code": "USA", "latitude": 37.782101, "longitude": -122.389519}], "total_money_raised": "$130k", "type": "Start-up", "loc_office": [-122.389519, 37.782101]}, "159": {"index": 319, "category_code": "web", "founded_year": 2008, "name": "Klatcher", "number_of_employees": 5, "offices": [{"description": "New York Office", "address1": "", "address2": "", "zip_code": "10031", "city": "", "state_code": "NY", "country_code": "USA", "latitude": 40.822087, "longitude": -73.950677}], "total_money_raised": "$150k", "type": "Start-up", "loc_office": [-73.950677, 40.822087]}, "160": {"index": 320, "category_code": "web", "founded_year": 2008, "name": "Spare Change Payments", "number_of_employees": 8, "offices": [{"description": "", "address1": "21771 Stevens Creek Blvd", "address2": "Suite 200", "zip_code": "95014", "city": "Cupertino", "state_code": "CA", "country_code": "USA", "latitude": 37.323234, "longitude": -122.055177}], "total_money_raised": "C$500k", "type": "Start-up", "loc_office": [-122.055177, 37.323234]}, "161": {"index": 324, "category_code": "web", "founded_year": 2008, "name": "Lolapps", "number_of_employees": 65, "offices": [{"description": "", "address1": "116 New Montgomery", "address2": "", "zip_code": "94105", "city": "San Francisco", "state_code": "CA", "country_code": "USA", "latitude": 37.7870923, "longitude": -122.3999719}], "total_money_raised": "$4M", "type": "Start-up", "loc_office": [-122.3999719, 37.7870923]}, "162": {"index": 305, "category_code": "network_hosting", "founded_year": 2008, "name": "YadaHome", "number_of_employees": 1, "offices": [{"description": "Main Office", "address1": "1200 G Street NW", "address2": "", "zip_code": "20005", "city": "Washington", "state_code": "DC", "country_code": "USA", "latitude": 38.897976, "longitude": -77.028561}], "total_money_raised": "$250k", "type": "Start-up", "loc_office": [-77.028561, 38.897976]}, "163": {"index": 326, "category_code": "mobile", "founded_year": 2008, "name": "Geodelic Systems", "number_of_employees": 30, "offices": [{"description": "Geodelic HQ", "address1": "3384 Robertson Place", "address2": "Suite 100", "zip_code": "90034", "city": "Los Angeles", "state_code": "CA", "country_code": "USA", "latitude": 34.005914, "longitude": -118.488129}], "total_money_raised": "$10.5M", "type": "Start-up", "loc_office": [-118.488129, 34.005914]}, "164": {"index": 327, "category_code": "mobile", "founded_year": 2008, "name": "Pixelpipe", "number_of_employees": 10, "offices": [{"description": "World Headquarters", "address1": "321 7th St", "address2": "", "zip_code": "94103", "city": "San Francisco", "state_code": "CA", "country_code": "USA", "latitude": 37.764395, "longitude": -122.401024}], "total_money_raised": "$2.3M", "type": "Start-up", "loc_office": [-122.401024, 37.764395]}, "165": {"index": 409, "category_code": "web", "founded_year": 2008, "name": "AdventureDrop", "number_of_employees": 6, "offices": [{"description": "Silicon Valley Office", "address1": "334 Santana Row", "address2": "Suite #330", "zip_code": "95128", "city": "San Jose", "state_code": "CA", "country_code": "USA", "latitude": 37.3218356, "longitude": -121.9478049}], "total_money_raised": "$100k", "type": "Start-up", "loc_office": [-121.9478049, 37.3218356]}, "166": {"index": 372, "category_code": "mobile", "founded_year": 2008, "name": "mobiManage", "number_of_employees": 15, "offices": [{"description": "Tulsa Office", "address1": "2448 E 81st", "address2": "Suite 5615", "zip_code": "74137", "city": "Tulsa", "state_code": "OK", "country_code": "USA", "latitude": 36.0463849, "longitude": -95.9550264}, {"description": "Headquarters", "address1": "6900 E. Camelback Road", "address2": "Suite 840", "zip_code": "85251", "city": "Scottsdale", "state_code": "AZ", "country_code": "USA", "latitude": 33.502612, "longitude": -111.9315649}], "total_money_raised": "$350k", "type": "Start-up", "loc_office": [-95.9550264, 36.0463849]}, "167": {"index": 263, "category_code": "web", "founded_year": 2008, "name": "Zorap", "number_of_employees": 2, "offices": [{"description": "", "address1": "", "address2": "", "zip_code": "", "city": "San Francisco", "state_code": "CA", "country_code": "USA", "latitude": 37.775196, "longitude": -122.419204}, {"description": "Headquarters", "address1": "35 Fieldstone Lane", "address2": "", "zip_code": "04105", "city": "Falmouth", "state_code": "ME", "country_code": "USA", "latitude": 43.6910137, "longitude": -70.2694636}], "total_money_raised": "$2.25M", "type": "Start-up", "loc_office": [-122.419204, 37.775196]}, "168": {"index": 405, "category_code": "ecommerce", "founded_year": 2008, "name": "Collexpo", "number_of_employees": 4, "offices": [{"description": "Home", "address1": "100 Shockoe Slip", "address2": "", "zip_code": "23219", "city": "Richmond", "state_code": "VA", "country_code": "USA", "latitude": 37.5353256, "longitude": -77.4338163}], "total_money_raised": "$225k", "type": "Start-up", "loc_office": [-77.4338163, 37.5353256]}, "169": {"index": 302, "category_code": "mobile", "founded_year": 2010, "name": "vufind", "number_of_employees": 7, "offices": [{"description": "Headquarters", "address1": "1290 oakmead parkway, suite 107", "address2": "", "zip_code": "94085", "city": "Sunnyvale", "state_code": "CA", "country_code": "USA", "latitude": 37.424614, "longitude": -122.145153}], "total_money_raised": "$930k", "type": "Start-up", "loc_office": [-122.145153, 37.424614]}, "170": {"index": 272, "category_code": "mobile", "founded_year": 2010, "name": "vufind", "number_of_employees": 7, "offices": [{"description": "Headquarters", "address1": "1290 oakmead parkway, suite 107", "address2": "", "zip_code": "94085", "city": "Sunnyvale", "state_code": "CA", "country_code": "USA", "latitude": 37.424614, "longitude": -122.145153}], "total_money_raised": "$930k", "type": "Start-up", "loc_office": [-122.145153, 37.424614]}, "171": {"index": 60, "category_code": "mobile", "founded_year": 2010, "name": "GENWI", "number_of_employees": 25, "offices": [{"description": "", "address1": "4966 El Camino Real", "address2": "Suite 200", "zip_code": "94022", "city": "Los Altos", "state_code": "CA", "country_code": "USA", "latitude": 33.8171, "longitude": -111.9035}], "total_money_raised": "$7.1M", "type": "Start-up", "loc_office": [-111.9035, 33.8171]}, "172": {"index": 357, "category_code": "web", "founded_year": 2010, "name": "Yipit", "number_of_employees": 23, "offices": [{"description": "HQ", "address1": "3 W 18th", "address2": "2nd Floor", "zip_code": "10011", "city": "New York", "state_code": "NY", "country_code": "USA", "latitude": 40.744618, "longitude": -73.987764}], "total_money_raised": "$7.55M", "type": "Start-up", "loc_office": [-73.987764, 40.744618]}, "173": {"index": 492, "category_code": "mobile", "founded_year": 2009, "name": "Getyoo", "number_of_employees": 10, "offices": [{"description": "HQ", "address1": "Rue des Tanneurs, 60a", "address2": "", "zip_code": "1000", "city": "Brussels", "state_code": null, "country_code": "BEL", "latitude": 50.83997, "longitude": 4.3464721}], "total_money_raised": "\u20ac1.13M", "type": "Start-up", "loc_office": [4.3464721, 50.83997]}, "174": {"index": 466, "category_code": "mobile", "founded_year": 2009, "name": "BitMethod", "number_of_employees": 6, "offices": [{"description": "Liberty Building", "address1": "418 6th Avenue", "address2": "Suite 1210", "zip_code": "50309", "city": "Des Moines", "state_code": "IA", "country_code": "USA", "latitude": 41.581232, "longitude": -93.621998}], "total_money_raised": "$50k", "type": "Start-up", "loc_office": [-93.621998, 41.581232]}, "175": {"index": 432, "category_code": "web", "founded_year": 2009, "name": "Gate 53|10 Technologies", "number_of_employees": 4, "offices": [{"description": "Headquarters", "address1": "Arndtstr 18-20", "address2": "", "zip_code": "22085", "city": "Hamburg", "state_code": null, "country_code": "DEU", "latitude": 53.5736401, "longitude": 10.0184565}], "total_money_raised": "\u20ac141k", "type": "Start-up", "loc_office": [10.0184565, 53.5736401]}, "176": {"index": 347, "category_code": "web", "founded_year": 2009, "name": "Formspring", "number_of_employees": 19, "offices": [{"description": "Formspring", "address1": "", "address2": "", "zip_code": "94105", "city": "San Francisco", "state_code": "CA", "country_code": "USA", "latitude": 39.9052263, "longitude": -86.0547016}], "total_money_raised": "$14.3M", "type": "Start-up", "loc_office": [-86.0547016, 39.9052263]}, "177": {"index": 463, "category_code": "web", "founded_year": 2009, "name": "Udorse", "number_of_employees": 3, "offices": [{"description": "", "address1": "", "address2": "", "zip_code": "", "city": "New York", "state_code": "NY", "country_code": "USA", "latitude": 40.756054, "longitude": -73.986951}], "total_money_raised": "$500k", "type": "Start-up", "loc_office": [-73.986951, 40.756054]}, "178": {"index": 225, "category_code": "web", "founded_year": 2009, "name": "BrandYourself", "number_of_employees": 22, "offices": [{"description": "", "address1": "120 Walker St", "address2": "FL 2", "zip_code": "10013", "city": "New York", "state_code": "NY", "country_code": "USA", "latitude": 42.275263, "longitude": -71.24762}], "total_money_raised": "$1.5M", "type": "Start-up", "loc_office": [-71.24762, 42.275263]}, "179": {"index": 434, "category_code": "web", "founded_year": 2009, "name": "Tongal", "number_of_employees": 8, "offices": [{"description": "Headquarters", "address1": "1918 Main Street", "address2": "2nd Floor", "zip_code": "90405", "city": "Santa Monica", "state_code": "CA", "country_code": "USA", "latitude": 34.007112, "longitude": -118.489748}], "total_money_raised": "$16M", "type": "Start-up", "loc_office": [-118.489748, 34.007112]}, "180": {"index": 438, "category_code": "ecommerce", "founded_year": 2009, "name": "Brandsclub", "number_of_employees": 140, "offices": [{"description": "", "address1": "", "address2": "", "zip_code": "", "city": "Sao Paulo", "state_code": null, "country_code": "BRA", "latitude": -23.5489433, "longitude": -46.6388182}], "total_money_raised": "$17M", "type": "Start-up", "loc_office": [-46.6388182, -23.5489433]}, "181": {"index": 328, "category_code": "ecommerce", "founded_year": 2008, "name": "InnerRewards", "number_of_employees": 9, "offices": [{"description": "West Coast", "address1": "731 Market Street", "address2": "Floor 6", "zip_code": "94103", "city": "San Francisco", "state_code": "CA", "country_code": "USA", "latitude": 37.78691, "longitude": -122.404403}, {"description": "East Coast", "address1": "16 West 23rd", "address2": "Floor 4", "zip_code": "10010", "city": "New York", "state_code": "NY", "country_code": "USA", "latitude": 40.741594, "longitude": -73.990468}], "total_money_raised": "$1M", "type": "Start-up", "loc_office": [-122.404403, 37.78691]}, "182": {"index": 455, "category_code": "web", "founded_year": 2009, "name": "ZodBod", "number_of_employees": 1, "offices": [{"description": "HQ", "address1": "34 Belvedere", "address2": "", "zip_code": "BA1 5PA", "city": "Bath", "state_code": null, "country_code": "GBR", "latitude": 51.3891333, "longitude": -2.3626891}], "total_money_raised": "\u00a325k", "type": "Start-up", "loc_office": [-2.3626891, 51.3891333]}, "183": {"index": 453, "category_code": "web", "founded_year": 2009, "name": "Social Collective", "number_of_employees": 3, "offices": [{"description": "HQ", "address1": "733 North Danville Street", "address2": "", "zip_code": "22201", "city": "Arlington", "state_code": "VA", "country_code": "USA", "latitude": 38.881717, "longitude": -77.089398}], "total_money_raised": "$20k", "type": "Start-up", "loc_office": [-77.089398, 38.881717]}, "184": {"index": 449, "category_code": "mobile", "founded_year": 2009, "name": "Tempolib", "number_of_employees": 4, "offices": [{"description": "P\u00c3\u00b4le M\u00c3\u00a9dia Belle de Mai", "address1": "37, rue Guibal", "address2": "", "zip_code": "13003", "city": "Marseille", "state_code": null, "country_code": "FRA", "latitude": 43.3075798, "longitude": 5.3873453}], "total_money_raised": "\u20ac200k", "type": "Start-up", "loc_office": [5.3873453, 43.3075798]}, "185": {"index": 446, "category_code": "web", "founded_year": 2009, "name": "Factery", "number_of_employees": 2, "offices": [{"description": "", "address1": "", "address2": "", "zip_code": "94025", "city": "Menlo Park", "state_code": "CA", "country_code": "USA", "latitude": 37.4484914, "longitude": -122.1802812}], "total_money_raised": "$1.2M", "type": "Start-up", "loc_office": [-122.1802812, 37.4484914]}, "186": {"index": 470, "category_code": "web", "founded_year": 2009, "name": "Ykone", "number_of_employees": 10, "offices": [{"description": "Ykone Headquarters", "address1": "", "address2": "", "zip_code": "", "city": "Paris", "state_code": null, "country_code": "FRA", "latitude": 48.8566667, "longitude": 2.3509871}], "total_money_raised": "\u20ac1.5M", "type": "Start-up", "loc_office": [2.3509871, 48.8566667]}, "187": {"index": 265, "category_code": "web", "founded_year": 2009, "name": "CompareAway", "number_of_employees": 5, "offices": [{"description": "Direct Holiday Bookings", "address1": "Green Lane", "address2": "Spennymoor", "zip_code": "DL16 6JF", "city": "Durham", "state_code": null, "country_code": "GBR", "latitude": 54.703145, "longitude": -1.574948}], "total_money_raised": "\u00a3500k", "type": "Start-up", "loc_office": [-1.574948, 54.703145]}, "188": {"index": 204, "category_code": "web", "founded_year": 2009, "name": "Supercool School", "number_of_employees": 3, "offices": [{"description": null, "address1": "1176 South Van Ness Avenue", "address2": "Suite B", "zip_code": "94110", "city": "San Francisco", "state_code": "CA", "country_code": "USA", "latitude": 37.754332, "longitude": -122.416804}], "total_money_raised": "$100k", "type": "Start-up", "loc_office": [-122.416804, 37.754332]}, "189": {"index": 414, "category_code": "web", "founded_year": 2009, "name": "Tinychat", "number_of_employees": 5, "offices": [{"description": "Home Office", "address1": "PO Box 431", "address2": "", "zip_code": "11542", "city": "Glen Cove", "state_code": "NY", "country_code": "USA", "latitude": 42.3756409, "longitude": -72.5196907}], "total_money_raised": "$1.5M", "type": "Start-up", "loc_office": [-72.5196907, 42.3756409]}, "190": {"index": 475, "category_code": "mobile", "founded_year": 2009, "name": "Layar", "number_of_employees": 32, "offices": [{"description": "HQ", "address1": "Vijzelstraat 20", "address2": "", "zip_code": "1017HK", "city": "Amsterdam", "state_code": null, "country_code": "NLD", "latitude": 52.3657578, "longitude": 4.8928722}], "total_money_raised": "$13.4M", "type": "Start-up", "loc_office": [4.8928722, 52.3657578]}, "191": {"index": 425, "category_code": "network_hosting", "founded_year": 2009, "name": "Gridstore", "number_of_employees": 31, "offices": [{"description": "Gridstore", "address1": "1975 Lndings Drive", "address2": "", "zip_code": "94043", "city": "Mountain View", "state_code": "CA", "country_code": "USA", "latitude": 37.4189073, "longitude": -122.0884286}], "total_money_raised": "\u20ac25M", "type": "Start-up", "loc_office": [-122.0884286, 37.4189073]}, "192": {"index": 480, "category_code": "web", "founded_year": 2009, "name": "TwtBks", "number_of_employees": 3, "offices": [{"description": "TwtBks", "address1": "442 Shotwell", "address2": "", "zip_code": "94110", "city": "San Francisco", "state_code": "CA", "country_code": "USA", "latitude": 37.7611016, "longitude": -122.4160008}], "total_money_raised": "$25k", "type": "Start-up", "loc_office": [-122.4160008, 37.7611016]}, "193": {"index": 482, "category_code": "web", "founded_year": 2009, "name": "ChallengePost", "number_of_employees": 17, "offices": [{"description": "", "address1": "425 West 13th Street", "address2": "Suite 504", "zip_code": "10014", "city": "New York", "state_code": "NY", "country_code": "USA", "latitude": 40.7408042, "longitude": -74.00717}], "total_money_raised": "$4.6M", "type": "Start-up", "loc_office": [-74.00717, 40.7408042]}, "194": {"index": 407, "category_code": "ecommerce", "founded_year": 2009, "name": "Shutl", "number_of_employees": 10, "offices": [{"description": "LaunchPad", "address1": "11 Curtain Road,", "address2": "2nd Floor, THe Courtyard Building", "zip_code": "EC2A3LT", "city": "London", "state_code": null, "country_code": "GBR", "latitude": 51.5196135, "longitude": -0.1020265}], "total_money_raised": "\u00a37.66M", "type": "Start-up", "loc_office": [-0.1020265, 51.5196135]}, "195": {"index": 439, "category_code": "web", "founded_year": 2009, "name": "TV Pixie", "number_of_employees": 2, "offices": [{"description": "Headquarters", "address1": "", "address2": "", "zip_code": "NW6 1TE", "city": "London", "state_code": null, "country_code": "GBR", "latitude": 51.5206682, "longitude": -0.1852079}], "total_money_raised": "\u20ac50k", "type": "Start-up", "loc_office": [-0.1852079, 51.5206682]}, "196": {"index": 304, "category_code": "mobile", "founded_year": 2008, "name": "Poll Everywhere", "number_of_employees": 20, "offices": [{"description": "Global Head Quarters", "address1": "1550 Bryant St", "address2": "Suite 700", "zip_code": "94103", "city": "San Francisco", "state_code": "CA", "country_code": "USA", "latitude": 41.864917, "longitude": -87.625271}], "total_money_raised": "$20k", "type": "Start-up", "loc_office": [-87.625271, 41.864917]}, "197": {"index": 332, "category_code": "web", "founded_year": 2008, "name": "DealBase Corporation", "number_of_employees": 3, "offices": [{"description": "DB HQ", "address1": "1112 Ocean Drive", "address2": "", "zip_code": "90266", "city": "Manhattan Beach", "state_code": "CA", "country_code": "USA", "latitude": 37.5758867, "longitude": -122.3277578}], "total_money_raised": "$1M", "type": "Start-up", "loc_office": [-122.3277578, 37.5758867]}, "198": {"index": 333, "category_code": "web", "founded_year": 2008, "name": "Cliqset", "number_of_employees": 5, "offices": [{"description": "Cliqset HQ", "address1": "1450 Flagler Avenue", "address2": "#3", "zip_code": "32207", "city": "Jacksonville", "state_code": "FL", "country_code": "USA", "latitude": 30.310978, "longitude": -81.657707}], "total_money_raised": "$2M", "type": "Start-up", "loc_office": [-81.657707, 30.310978]}, "199": {"index": 468, "category_code": "ecommerce", "founded_year": 2008, "name": "CostumeWorks", "number_of_employees": 3, "offices": [{"description": "Headquarters", "address1": "P.O. box 876", "address2": "", "zip_code": "53147", "city": "Lake Geneva", "state_code": "WI", "country_code": "USA", "latitude": 42.5602523, "longitude": -88.4597673}], "total_money_raised": "$175k", "type": "Start-up", "loc_office": [-88.4597673, 42.5602523]}, "200": {"index": 431, "category_code": "ecommerce", "founded_year": 2008, "name": "IntheGlo", "number_of_employees": 5, "offices": [{"description": "Headquarters", "address1": "244 5th Avenue", "address2": "Suite 2LP", "zip_code": "10001", "city": "New York", "state_code": "NY", "country_code": "USA", "latitude": 40.744618, "longitude": -73.987764}], "total_money_raised": "$30k", "type": "Start-up", "loc_office": [-73.987764, 40.744618]}, "201": {"index": 208, "category_code": "mobile", "founded_year": 2008, "name": "Fonemesh", "number_of_employees": 7, "offices": [{"description": null, "address1": "425 Market Street , Suite 2200", "address2": "", "zip_code": "94105", "city": "San Francisco", "state_code": "CA", "country_code": "USA", "latitude": 37.791128, "longitude": -122.398126}, {"description": "", "address1": "", "address2": "", "zip_code": "", "city": "Singapore", "state_code": null, "country_code": "SGP", "latitude": 1.289407, "longitude": 103.849962}], "total_money_raised": "$250k", "type": "Start-up", "loc_office": [-122.398126, 37.791128]}, "202": {"index": 473, "category_code": "web", "founded_year": 2008, "name": "Kimengi", "number_of_employees": 5, "offices": [{"description": "HQ", "address1": "Keizersgracht 203", "address2": "", "zip_code": "1016DS", "city": "Amsterdam", "state_code": null, "country_code": "NLD", "latitude": 52.3735592, "longitude": 4.8852747}], "total_money_raised": "\u20ac250k", "type": "Start-up", "loc_office": [4.8852747, 52.3735592]}, "203": {"index": 474, "category_code": "web", "founded_year": 2008, "name": "Joroto", "number_of_employees": 3, "offices": [{"description": "World Headquarters", "address1": "13134 Carter Road", "address2": "", "zip_code": "44077", "city": "Cleveland", "state_code": "OH", "country_code": "USA", "latitude": 41.701368, "longitude": -81.165981}], "total_money_raised": "$16k", "type": "Start-up", "loc_office": [-81.165981, 41.701368]}, "204": {"index": 478, "category_code": "web", "founded_year": 2008, "name": "CrowdGather", "number_of_employees": 9, "offices": [{"description": "HQ", "address1": "20300 Ventura Blvd. Suite 330", "address2": "", "zip_code": "91364", "city": "Woodland Hills", "state_code": "CA", "country_code": "USA", "latitude": 34.168955, "longitude": -118.575293}], "total_money_raised": "$18M", "type": "Start-up", "loc_office": [-118.575293, 34.168955]}, "205": {"index": 479, "category_code": "mobile", "founded_year": 2008, "name": "Mobiles Republic", "number_of_employees": 25, "offices": [{"description": "", "address1": "2, Rue Robert Caumont", "address2": "", "zip_code": "33049", "city": "Bordeaux Cedex", "state_code": null, "country_code": "FRA", "latitude": 44.8743952, "longitude": -0.5754294}], "total_money_raised": "$9M", "type": "Start-up", "loc_office": [-0.5754294, 44.8743952]}, "206": {"index": 189, "category_code": "web", "founded_year": 2008, "name": "Mad Mimi", "number_of_employees": 35, "offices": [{"description": "", "address1": "172 Fifth Avenue", "address2": "Suite 131", "zip_code": "11215", "city": "Brooklyn", "state_code": "NY", "country_code": "USA", "latitude": 40.66509, "longitude": -73.980306}], "total_money_raised": "$110k", "type": "Start-up", "loc_office": [-73.980306, 40.66509]}, "207": {"index": 484, "category_code": "web", "founded_year": 2008, "name": "StyleCaster", "number_of_employees": 60, "offices": [{"description": "", "address1": "49 W 27th St Uppr A", "address2": "", "zip_code": "10001-6936", "city": "New York City", "state_code": "NY", "country_code": "USA", "latitude": 40.7450497, "longitude": -73.9900984}], "total_money_raised": "$5M", "type": "Start-up", "loc_office": [-73.9900984, 40.7450497]}, "208": {"index": 485, "category_code": "web", "founded_year": 2008, "name": "Tagito", "number_of_employees": 4, "offices": [{"description": "Headquarters", "address1": "1 Stockbridge", "address2": "", "zip_code": "92656", "city": "Aliso Viejo", "state_code": "CA", "country_code": "USA", "latitude": 33.564557, "longitude": -117.735509}], "total_money_raised": "$320k", "type": "Start-up", "loc_office": [-117.735509, 33.564557]}, "209": {"index": 486, "category_code": "web", "founded_year": 2008, "name": "Culture Jam", "number_of_employees": 15, "offices": [{"description": "", "address1": "2434 Lincoln Blvd", "address2": "Floor 2", "zip_code": "90291", "city": "Los Angeles", "state_code": "CA", "country_code": "USA", "latitude": 34.0137151, "longitude": -118.4660597}], "total_money_raised": "$1.7M", "type": "Start-up", "loc_office": [-118.4660597, 34.0137151]}, "210": {"index": 433, "category_code": "web", "founded_year": 2008, "name": "Ranker", "number_of_employees": 12, "offices": [{"description": "HQ", "address1": "6420 Wilshire Blvd.", "address2": "Suite 880", "zip_code": "90048", "city": "Los Angeles", "state_code": "CA", "country_code": "USA", "latitude": 34.1012181, "longitude": -118.325739}], "total_money_raised": "$5.1M", "type": "Start-up", "loc_office": [-118.325739, 34.1012181]}, "211": {"index": 461, "category_code": "ecommerce", "founded_year": 2008, "name": "Mobshop", "number_of_employees": 4, "offices": [{"description": "Headquarters", "address1": "8 rue de montyon", "address2": "", "zip_code": "75009", "city": "Paris", "state_code": null, "country_code": "FRA", "latitude": 48.8730623, "longitude": 2.3443538}], "total_money_raised": "\u20ac100k", "type": "Start-up", "loc_office": [2.3443538, 48.8730623]}, "212": {"index": 218, "category_code": "web", "founded_year": 2008, "name": "Socruise", "number_of_employees": 5, "offices": [{"description": "Cruise Store", "address1": "32 The Pantiles", "address2": "Tunbridge Wells", "zip_code": "TN2 5TN", "city": "Kent", "state_code": null, "country_code": "GBR", "latitude": 51.125693, "longitude": 0.257568}], "total_money_raised": "\u20ac250k", "type": "Start-up", "loc_office": [0.257568, 51.125693]}, "213": {"index": 422, "category_code": "network_hosting", "founded_year": 2008, "name": "Parents R People", "number_of_employees": 2, "offices": [{"description": "", "address1": "734 walt whitman rd", "address2": "", "zip_code": "11747", "city": "melville", "state_code": "NY", "country_code": "USA", "latitude": 40.803329, "longitude": -73.410677}], "total_money_raised": "$90k", "type": "Start-up", "loc_office": [-73.410677, 40.803329]}, "214": {"index": 419, "category_code": "ecommerce", "founded_year": 2008, "name": "SocialCom", "number_of_employees": 5, "offices": [{"description": "Telenet GmbH", "address1": "Erika-Mann-Str. 59", "address2": "", "zip_code": "80636", "city": "Munich", "state_code": null, "country_code": "DEU", "latitude": 52.5375697, "longitude": 13.3740493}], "total_money_raised": "\u20ac203k", "type": "Start-up", "loc_office": [13.3740493, 52.5375697]}, "215": {"index": 424, "category_code": "web", "founded_year": 2008, "name": "Wee Web", "number_of_employees": 5, "offices": [{"description": "", "address1": "", "address2": "", "zip_code": "", "city": "New York", "state_code": "NY", "country_code": "USA", "latitude": 40.756054, "longitude": -73.986951}], "total_money_raised": "$270k", "type": "Start-up", "loc_office": [-73.986951, 40.756054]}, "216": {"index": 418, "category_code": "mobile", "founded_year": 2008, "name": "L4 Mobile", "number_of_employees": 25, "offices": [{"description": "L4 Mobile", "address1": "1818 Westlake Ave. N,", "address2": "Suite #424", "zip_code": "98109", "city": "Seattle", "state_code": "WA", "country_code": "USA", "latitude": 47.676762, "longitude": -122.2049192}], "total_money_raised": "$4.8M", "type": "Start-up", "loc_office": [-122.2049192, 47.676762]}, "217": {"index": 230, "category_code": "mobile", "founded_year": 2008, "name": "Tapulous", "number_of_employees": 15, "offices": [{"description": "", "address1": "240 Hamilton Ave", "address2": "", "zip_code": "94301", "city": "Palo Alto", "state_code": "CA", "country_code": "USA", "latitude": 37.444332, "longitude": -122.161018}], "total_money_raised": "$2.8M", "type": "Start-up", "loc_office": [-122.161018, 37.444332]}, "218": {"index": 336, "category_code": "network_hosting", "founded_year": 2007, "name": "Pathable", "number_of_employees": 18, "offices": [{"description": "", "address1": "4065 4th Ave NE", "address2": "", "zip_code": "98105", "city": "Seattle", "state_code": "WA", "country_code": "USA", "latitude": 47.657435, "longitude": -122.324861}], "total_money_raised": "$314k", "type": "Start-up", "loc_office": [-122.324861, 47.657435]},